[
  {
    "address": "Kornhausstr. 3, 3000 Bern",
    "country": "ch",
    "cuisine": "Moderne K\u00fcche",
    "latitude": "46.95303",
    "longitude": "7.44967",
    "name": "Meridiano",
    "neighborhood": "Bern",
    "num_star": 1,
    "price_range": "Ab CHF 88 Bis CHF 165",
    "url": "https://de.viamichelin.ch/web/Restaurant/Bern-3000-Meridiano-2ileu51",
    "website": "http://www.kursaal-bern.ch/Restaurants/Meridiano"
  },
  {
    "address": "Talstr. 1, 8001 Z\u00fcrich",
    "country": "ch",
    "cuisine": "Franz\u00f6sisch-klassisch",
    "latitude": "47.36708",
    "longitude": "8.53794",
    "name": "Pavillon",
    "neighborhood": "Z\u00fcrich",
    "num_star": 1,
    "price_range": "Ab CHF 98 Bis CHF 228",
    "url": "https://de.viamichelin.ch/web/Restaurant/Zurich-8001-Pavillon-2img302",
    "website": "http://www.bauraulac.ch"
  },
  {
    "address": "Clarastr. 43, 4058 Basel",
    "country": "ch",
    "cuisine": "Klassische K\u00fcche,International",
    "latitude": "47.56304",
    "longitude": "7.5979",
    "name": "Les Quatre Saisons",
    "neighborhood": "Basel",
    "num_star": 1,
    "price_range": "Ab CHF 62 Bis CHF 175",
    "url": "https://de.viamichelin.ch/web/Restaurant/Basel-4058-Les_Quatre_Saisons-2iqqasd",
    "website": "http://www.lesquatresaisons.ch"
  },
  {
    "address": "Leonhardsgraben 49, 4051 Basel",
    "country": "ch",
    "cuisine": "Franz\u00f6sisch-klassisch,International",
    "latitude": "47.55585",
    "longitude": "7.58646",
    "name": "Bel Etage",
    "neighborhood": "Basel",
    "num_star": 1,
    "price_range": "Ab CHF 95 Bis CHF 169",
    "url": "https://de.viamichelin.ch/web/Restaurant/Basel-4051-Bel_Etage-2iqr3hi",
    "website": "http://www.teufelhof.com"
  },
  {
    "address": "Attisholzstr. 3, 4533 Riedholz",
    "country": "ch",
    "cuisine": "Franz\u00f6sisch",
    "latitude": "47.22635",
    "longitude": "7.57911",
    "name": "Attisholz - le feu",
    "neighborhood": "Riedholz",
    "num_star": 1,
    "price_range": "Ab CHF 109 Bis CHF 172",
    "url": "https://de.viamichelin.ch/web/Restaurant/Riedholz-4533-Attisholz_le_feu-2j4velj",
    "website": "http://www.attisholz.ch"
  },
  {
    "address": "Sonnenbergstrasse, 7050 Arosa",
    "country": "ch",
    "cuisine": "Moderne K\u00fcche",
    "latitude": "46.77743",
    "longitude": "9.66915",
    "name": "La Vetta",
    "neighborhood": "Arosa",
    "num_star": 1,
    "price_range": "Ab CHF 79 Bis CHF 139",
    "url": "https://de.viamichelin.ch/web/Restaurant/Arosa-7050-La_Vetta-2jb9wkb",
    "website": "http://www.tschuggen.ch"
  },
  {
    "address": "via Muraccio 142, 6612 Ascona",
    "country": "ch",
    "cuisine": "Mediterran",
    "latitude": "46.15043",
    "longitude": "8.79083",
    "name": "Locanda Barbarossa",
    "neighborhood": "Ascona",
    "num_star": 1,
    "price_range": "Ab CHF 100 Bis CHF 190",
    "url": "https://de.viamichelin.ch/web/Restaurant/Ascona-6612-Locanda_Barbarossa-2jboc6w",
    "website": "http://www.castellodelsole.com"
  },
  {
    "address": "Seedammstr. 3, 8808 Pf\u00e4ffikon",
    "country": "ch",
    "cuisine": "Moderne K\u00fcche,International",
    "latitude": "47.20307",
    "longitude": "8.79071",
    "name": "Pur",
    "neighborhood": "Pf\u00e4ffikon",
    "num_star": 1,
    "price_range": "Ab CHF 78 Bis CHF 145",
    "url": "https://de.viamichelin.ch/web/Restaurant/Pfaffikon-8808-Pur-2k3m53v",
    "website": "http://www.seedamm-plaza.ch"
  },
  {
    "address": "Kantonsstr. 3, 4416 Bubendorf",
    "country": "ch",
    "cuisine": "Italienisch,Moderne K\u00fcche",
    "latitude": "47.45923",
    "longitude": "7.74232",
    "name": "Osteria TRE",
    "neighborhood": "Bubendorf",
    "num_star": 1,
    "price_range": "Ab CHF 109 Bis CHF 158",
    "url": "https://de.viamichelin.ch/web/Restaurant/Bubendorf-4416-Osteria_TRE-2k59uvr",
    "website": "http://www.badbubendorf.ch"
  },
  {
    "address": "Seestr. 18, 6354 Vitznau",
    "country": "ch",
    "cuisine": "Moderne K\u00fcche",
    "latitude": "47.00919",
    "longitude": "8.48342",
    "name": "PRISMA",
    "neighborhood": "Vitznau",
    "num_star": 1,
    "price_range": "Ab CHF 92 Bis CHF 160",
    "url": "https://de.viamichelin.ch/web/Restaurant/Vitznau-6354-PRISMA-3wwucxb0",
    "website": "http://www.parkhotel-vitznau.ch"
  },
  {
    "address": "Enggisteinstr. 16a, 3076 Worb",
    "country": "ch",
    "cuisine": "Kreativ",
    "latitude": "46.92995",
    "longitude": "7.56469",
    "name": "Eisblume",
    "neighborhood": "Worb",
    "num_star": 1,
    "price_range": "Ab CHF 135 Bis CHF 220",
    "url": "https://de.viamichelin.ch/web/Restaurant/Worb-3076-Eisblume-9iuoquj0",
    "website": "http://www.eisblume-worb.ch"
  },
  {
    "address": "Dufaux-Str. 1, 8152 Z\u00fcrich-Opfikon",
    "country": "ch",
    "cuisine": "Moderne K\u00fcche",
    "latitude": "47.422745",
    "longitude": "8.558637",
    "name": "YOU",
    "neighborhood": "Z\u00fcrich-Opfikon",
    "num_star": 1,
    "price_range": "Ab CHF 109 Bis CHF 170",
    "url": "https://de.viamichelin.ch/web/Restaurant/Zurich_Opfikon-8152-YOU-soahiuyt",
    "website": "http://www.kameha.com"
  },
  {
    "address": "Germaniastr. 99, 8044 Z\u00fcrich",
    "country": "ch",
    "cuisine": "Moderne K\u00fcche",
    "latitude": "47.38829",
    "longitude": "8.55295",
    "name": "Rigiblick",
    "neighborhood": "Z\u00fcrich",
    "num_star": 1,
    "price_range": "Ab CHF 105 Bis CHF 185",
    "url": "https://de.viamichelin.ch/web/Restaurant/Zurich-8044-Rigiblick-2im8rm7",
    "website": "http://www.restaurantrigiblick.ch"
  },
  {
    "address": "Quai Wilson 47, 1211 Gen\u00e8ve",
    "country": "ch",
    "cuisine": "Franz\u00f6sisch-modern",
    "latitude": "46.21578",
    "longitude": "6.15163",
    "name": "Bayview",
    "neighborhood": "Gen\u00e8ve",
    "num_star": 1,
    "price_range": "Ab CHF 68 Bis CHF 215",
    "url": "https://de.viamichelin.ch/web/Restaurant/Geneve-1211-Bayview-2inoshb",
    "website": "http://www.hotelpresidentwilson.com"
  },
  {
    "address": "Quai du Mont-Blanc 13, 1201 Gen\u00e8ve",
    "country": "ch",
    "cuisine": "Franz\u00f6sisch-modern",
    "latitude": "46.20927",
    "longitude": "6.15025",
    "name": "Le Chat Bott\u00e9",
    "neighborhood": "Gen\u00e8ve",
    "num_star": 1,
    "price_range": "Ab CHF 60 Bis CHF 220",
    "url": "https://de.viamichelin.ch/web/Restaurant/Geneve-1201-Le_Chat_Botte-2inuprt",
    "website": "http://www.beau-rivage.ch"
  },
  {
    "address": "Route de Lausanne 301, 1293 Bellevue",
    "country": "ch",
    "cuisine": "Chinesisch",
    "latitude": "46.2497",
    "longitude": "6.15043",
    "name": "Ts\u00e9 Fung",
    "neighborhood": "Bellevue",
    "num_star": 1,
    "price_range": "Ab CHF 68 Bis CHF 284",
    "url": "https://de.viamichelin.ch/web/Restaurant/Bellevue-1293-Tse_Fung-2ion80m",
    "website": "http://www.tsefung.ch"
  },
  {
    "address": "Place Pierre-Gautier 5, 1223 Cologny",
    "country": "ch",
    "cuisine": "Moderne K\u00fcche",
    "latitude": "46.21552",
    "longitude": "6.1810293",
    "name": "Auberge du Lion d'Or",
    "neighborhood": "Cologny",
    "num_star": 1,
    "price_range": "Ab CHF 78 Bis CHF 210",
    "url": "https://de.viamichelin.ch/web/Restaurant/Cologny-1223-Auberge_du_Lion_d_Or-2iot150",
    "website": "http://www.dupont-byrne.ch"
  },
  {
    "address": "Quai des Bergues 33, 1201 Gen\u00e8ve",
    "country": "ch",
    "cuisine": "Italienisch,Mediterran",
    "latitude": "46.20669",
    "longitude": "6.14661",
    "name": "Il Lago",
    "neighborhood": "Gen\u00e8ve",
    "num_star": 1,
    "price_range": "Ab CHF 78 Bis CHF 187",
    "url": "https://de.viamichelin.ch/web/Restaurant/Geneve-1201-Il_Lago-2ip4u7y",
    "website": "http://www.fourseasons.com/geneva"
  },
  {
    "address": "Sch\u00fctzengasse 5, 8001 Z\u00fcrich",
    "country": "ch",
    "cuisine": "Moderne K\u00fcche",
    "latitude": "47.376255",
    "longitude": "8.540257",
    "name": "Sein",
    "neighborhood": "Z\u00fcrich",
    "num_star": 1,
    "price_range": "Ab CHF 84 Bis CHF 175",
    "url": "https://de.viamichelin.ch/web/Restaurant/Zurich-8001-Sein-2ip7l93",
    "website": "http://www.zuerichsein.ch"
  },
  {
    "address": "Bernhard-Simon-Str. 2, 7310 Bad Ragaz",
    "country": "ch",
    "cuisine": "Kreativ",
    "latitude": "47.00039",
    "longitude": "9.502438",
    "name": "IGNIV by Andreas Caminada",
    "neighborhood": "Ragaz",
    "num_star": 1,
    "price_range": "Ab CHF 138 Bis CHF 216",
    "url": "https://de.viamichelin.ch/web/Restaurant/Bad_Ragaz-7310-IGNIV_by_Andreas_Caminada-2iqk28q",
    "website": "http://www.igniv.com"
  },
  {
    "address": "via Orico 13, 6500 Bellinzona",
    "country": "ch",
    "cuisine": "Mediterran",
    "latitude": "46.192104",
    "longitude": "9.019009",
    "name": "Locanda Orico",
    "neighborhood": "Bellinzona",
    "num_star": 1,
    "price_range": "Ab CHF 48 Bis CHF 128",
    "url": "https://de.viamichelin.ch/web/Restaurant/Bellinzona-6500-Locanda_Orico-2ir5iq3",
    "website": "http://www.locandaorico.ch"
  },
  {
    "address": "Wolfhauserstr. 2, 8608 Bubikon",
    "country": "ch",
    "cuisine": "Franz\u00f6sisch-klassisch",
    "latitude": "47.26841",
    "longitude": "8.81892",
    "name": "L\u00f6wen - Apriori",
    "neighborhood": "Bubikon",
    "num_star": 1,
    "price_range": "Ab CHF 61 Bis CHF 154",
    "url": "https://de.viamichelin.ch/web/Restaurant/Bubikon-8608-Lowen_Apriori-2is0gd4",
    "website": "http://www.loewenbubikon.ch"
  },
  {
    "address": "Kirchbergstr. 70, 3400 Burgdorf",
    "country": "ch",
    "cuisine": "Franz\u00f6sisch-klassisch",
    "latitude": "47.06232",
    "longitude": "7.61933",
    "name": "Emmenhof",
    "neighborhood": "Burgdorf",
    "num_star": 1,
    "price_range": "Ab CHF 75 Bis CHF 175",
    "url": "https://de.viamichelin.ch/web/Restaurant/Burgdorf-3400-Emmenhof-2is3x22",
    "website": "http://www.emmenhofburgdorf.ch"
  },
  {
    "address": "Route du Pas de l'Ours 41, 3963 Crans-Montana",
    "country": "ch",
    "cuisine": "Moderne K\u00fcche",
    "latitude": "46.30766",
    "longitude": "7.4597955",
    "name": "L'OURS",
    "neighborhood": "Crans-Montana",
    "num_star": 1,
    "price_range": "Ab CHF 65 Bis CHF 195",
    "url": "https://de.viamichelin.ch/web/Restaurant/Crans_Montana-3963-L_OURS-2isrfxk",
    "website": "http://www.pasdelours.ch"
  },
  {
    "address": "Hauptstr. 111, 6182 Escholzmatt",
    "country": "ch",
    "cuisine": "Kreativ",
    "latitude": "46.91367",
    "longitude": "7.93395",
    "name": "R\u00f6ssli - J\u00e4gerst\u00fcbli",
    "neighborhood": "Escholzmatt",
    "num_star": 1,
    "price_range": "Ab CHF 178 Bis CHF 178",
    "url": "https://de.viamichelin.ch/web/Restaurant/Escholzmatt-6182-Rossli_Jagerstubli-2itycyc",
    "website": "http://www.hexer.ch"
  },
  {
    "address": "Hauptstr. 94, 4112 Fl\u00fch",
    "country": "ch",
    "cuisine": "Franz\u00f6sisch-klassisch,Marktk\u00fcche",
    "latitude": "47.48878",
    "longitude": "7.49867",
    "name": "Martin",
    "neighborhood": "Fl\u00fch",
    "num_star": 1,
    "price_range": "Ab CHF 58 Bis CHF 140",
    "url": "https://de.viamichelin.ch/web/Restaurant/Fluh-4112-Martin-2iuc0cj",
    "website": "http://www.restaurant-martin.ch"
  },
  {
    "address": "Steinrain 5, 4112 Fl\u00fch",
    "country": "ch",
    "cuisine": "Franz\u00f6sisch-klassisch,Marktk\u00fcche",
    "latitude": "47.4885",
    "longitude": "7.4980493",
    "name": "Wirtshaus Zur S\u00e4ge",
    "neighborhood": "Fl\u00fch",
    "num_star": 1,
    "price_range": "Ab CHF 70 Bis CHF 165",
    "url": "https://de.viamichelin.ch/web/Restaurant/Fluh-4112-Wirtshaus_Zur_Sage-2iue995",
    "website": "http://www.s\u00e4ge-fl\u00fch.ch"
  },
  {
    "address": "Route de Bourguillon 15, 1722 Bourguillon",
    "country": "ch",
    "cuisine": "Franz\u00f6sisch",
    "latitude": "46.80029",
    "longitude": "7.1762",
    "name": "Des Trois Tours",
    "neighborhood": "Bourguillon",
    "num_star": 1,
    "price_range": "Ab CHF 75 Bis CHF 175",
    "url": "https://de.viamichelin.ch/web/Restaurant/Bourguillon-1722-Des_Trois_Tours-2iurwug",
    "website": "http://www.troistours.ch"
  },
  {
    "address": "Rotenwies 9, 9056 Gais",
    "country": "ch",
    "cuisine": "Regional,International",
    "latitude": "47.36615",
    "longitude": "9.46076",
    "name": "Truube",
    "neighborhood": "Gais",
    "num_star": 1,
    "price_range": "Ab CHF 92 Bis CHF 155",
    "url": "https://de.viamichelin.ch/web/Restaurant/Gais-9056-Truube-2iuv23f",
    "website": "http://www.truube.ch"
  },
  {
    "address": "Sihlhaldenstr. 70, 8136 Gattikon",
    "country": "ch",
    "cuisine": "Klassische K\u00fcche",
    "latitude": "47.28451",
    "longitude": "8.54961",
    "name": "Sihlhalde",
    "neighborhood": "Gattikon",
    "num_star": 1,
    "price_range": "Ab CHF 83 Bis CHF 128",
    "url": "https://de.viamichelin.ch/web/Restaurant/Gattikon-8136-Sihlhalde-2iuxzxn",
    "website": "http://www.smoly.ch"
  },
  {
    "address": "Route d'Ambilly 39, 1226 Th\u00f4nex",
    "country": "ch",
    "cuisine": "Fisch und Meeresfr\u00fcchte",
    "latitude": "46.19945",
    "longitude": "6.22099",
    "name": "Le Cigalon",
    "neighborhood": "Th\u00f4nex",
    "num_star": 1,
    "price_range": "Ab CHF 54 Bis CHF 150",
    "url": "https://de.viamichelin.ch/web/Restaurant/Thonex-1226-Le_Cigalon-2ivbdr4",
    "website": "http://www.le-cigalon.ch"
  },
  {
    "address": "Alte Lauenenstr. 6, 3780 Gstaad",
    "country": "ch",
    "cuisine": "Franz\u00f6sisch-klassisch",
    "latitude": "46.47256",
    "longitude": "7.2872",
    "name": "Chesery",
    "neighborhood": "Gstaad",
    "num_star": 1,
    "price_range": "Ab CHF 78 Bis CHF 186",
    "url": "https://de.viamichelin.ch/web/Restaurant/Gstaad-3780-Chesery-2ivxl1z",
    "website": "http://www.chesery.ch"
  },
  {
    "address": "Untergstaadstr. 17, 3780 Gstaad",
    "country": "ch",
    "cuisine": "Franz\u00f6sisch-klassisch,International",
    "latitude": "46.47523",
    "longitude": "7.28496",
    "name": "LEONARD'S",
    "neighborhood": "Gstaad",
    "num_star": 1,
    "price_range": "Ab CHF 75 Bis CHF 138",
    "url": "https://de.viamichelin.ch/web/Restaurant/Gstaad-3780-LEONARD_S-2ivzp3z",
    "website": "http://www.bellevue-gstaad.ch"
  },
  {
    "address": "Hurdnerstr. 143, 8640 Rapperswil",
    "country": "ch",
    "cuisine": "Franz\u00f6sisch-klassisch",
    "latitude": "47.21486",
    "longitude": "8.805439",
    "name": "Adler Hurden",
    "neighborhood": "Rapperswil",
    "num_star": 1,
    "price_range": "Ab CHF 85 Bis CHF 185",
    "url": "https://de.viamichelin.ch/web/Restaurant/Rapperswil-8640-Adler_Hurden-2iwh3e3",
    "website": "http://www.adler-hurden.ch"
  },
  {
    "address": "Oberdorfstr. 3, 3812 Wilderswil",
    "country": "ch",
    "cuisine": "Kreativ,Regional",
    "latitude": "46.6639",
    "longitude": "7.86036",
    "name": "Alpenblick",
    "neighborhood": "Wilderswil",
    "num_star": 1,
    "price_range": "Ab CHF 92 Bis CHF 250",
    "url": "https://de.viamichelin.ch/web/Restaurant/Wilderswil-3812-Alpenblick-2iwnx5o",
    "website": "http://www.hotel-alpenblick.ch"
  },
  {
    "address": "Rue Grand-Ch\u00eane 7, 1002 Lausanne",
    "country": "ch",
    "cuisine": "Mediterran,Klassische K\u00fcche",
    "latitude": "46.51954",
    "longitude": "6.63162",
    "name": "La Table d'Edgard",
    "neighborhood": "Lausanne",
    "num_star": 1,
    "price_range": "Ab CHF 75 Bis CHF 180",
    "url": "https://de.viamichelin.ch/web/Restaurant/Lausanne-1002-La_Table_d_Edgard-2ixdig4",
    "website": "http://www.lausanne-palace.com"
  },
  {
    "address": "Voa Davos Lai 27, 7078 Lai",
    "country": "ch",
    "cuisine": "International,Klassische K\u00fcche",
    "latitude": "46.73574",
    "longitude": "9.54668",
    "name": "La Riva",
    "neighborhood": "Lai",
    "num_star": 1,
    "price_range": "Ab CHF 32 Bis CHF 150",
    "url": "https://de.viamichelin.ch/web/Restaurant/Lai-7078-La_Riva-2iy1b3k",
    "website": "http://www.lariva.ch"
  },
  {
    "address": "Voa Sporz 85, 7078 Lenzerheide/Sporz",
    "country": "ch",
    "cuisine": "Moderne K\u00fcche",
    "latitude": "46.71156",
    "longitude": "9.540412",
    "name": "Guarda Val",
    "neighborhood": "Lenzerheide/Sporz",
    "num_star": 1,
    "price_range": "Ab CHF 98 Bis CHF 178",
    "url": "https://de.viamichelin.ch/web/Restaurant/Lenzerheide_Sporz-7078-Guarda_Val-2iy2crm",
    "website": "http://www.guardaval.ch"
  },
  {
    "address": "Piazza Emilio Bossi 7, 6906 Lugano-Cassarate",
    "country": "ch",
    "cuisine": "Franz\u00f6sisch-klassisch,Mediterran",
    "latitude": "46.00555",
    "longitude": "8.96925",
    "name": "Art\u00e9",
    "neighborhood": "Lugano-Cassarate",
    "num_star": 1,
    "price_range": "Ab CHF 65 Bis CHF 120",
    "url": "https://de.viamichelin.ch/web/Restaurant/Lugano_Cassarate-6906-Arte-2iye4g0",
    "website": "http://www.villacastagnola.com"
  },
  {
    "address": "Oberdorfstr. 5, 8887 Mels",
    "country": "ch",
    "cuisine": "Klassische K\u00fcche,Moderne K\u00fcche",
    "latitude": "47.04613",
    "longitude": "9.41833",
    "name": "Schl\u00fcssel - Nidbergstube",
    "neighborhood": "Mels",
    "num_star": 1,
    "price_range": "Ab CHF 75 Bis CHF 190",
    "url": "https://de.viamichelin.ch/web/Restaurant/Mels-8887-Schlussel_Nidbergstube-2izsc5y",
    "website": "http://www.schluesselmels.ch"
  },
  {
    "address": "Place de l'\u00c9cole 1, 1871 Cho\u00ebx",
    "country": "ch",
    "cuisine": "Franz\u00f6sisch-klassisch",
    "latitude": "46.23913",
    "longitude": "6.95105",
    "name": "Caf\u00e9 Berra",
    "neighborhood": "Cho\u00ebx",
    "num_star": 1,
    "price_range": "Ab CHF 66 Bis CHF 104",
    "url": "https://de.viamichelin.ch/web/Restaurant/Choex-1871-Cafe_Berra-2j068oi",
    "website": "http://www.cafeberra.ch"
  },
  {
    "address": "Avenue Bachelin 11, 2072 Saint-Blaise",
    "country": "ch",
    "cuisine": "Moderne K\u00fcche",
    "latitude": "47.01281",
    "longitude": "6.98603",
    "name": "Le Bocca",
    "neighborhood": "Saint-Blaise",
    "num_star": 1,
    "price_range": "Ab CHF 68 Bis CHF 180",
    "url": "https://de.viamichelin.ch/web/Restaurant/Saint_Blaise-2072-Le_Bocca-2j105fk",
    "website": "http://www.le-bocca.com"
  },
  {
    "address": "Baslerstr. 211, 4632 Trimbach",
    "country": "ch",
    "cuisine": "Franz\u00f6sisch-klassisch",
    "latitude": "47.36308",
    "longitude": "7.89549",
    "name": "Traube",
    "neighborhood": "Trimbach",
    "num_star": 1,
    "price_range": "Ab CHF 68 Bis CHF 175",
    "url": "https://de.viamichelin.ch/web/Restaurant/Trimbach-4632-Traube-2j1oykb",
    "website": "http://www.traubetrimbach.ch"
  },
  {
    "address": "Place Centrale 1, 1937 Orsi\u00e8res",
    "country": "ch",
    "cuisine": "Franz\u00f6sisch-modern",
    "latitude": "46.03082",
    "longitude": "7.14629",
    "name": "Les Alpes",
    "neighborhood": "Orsi\u00e8res",
    "num_star": 1,
    "price_range": "Ab CHF 85 Bis CHF 165",
    "url": "https://de.viamichelin.ch/web/Restaurant/Orsieres-1937-Les_Alpes-2j1ux0g",
    "website": "http://www.lesalpes.ch"
  },
  {
    "address": "Gupf 21, 9038 Rehetobel",
    "country": "ch",
    "cuisine": "Franz\u00f6sisch-klassisch",
    "latitude": "47.43086",
    "longitude": "9.4913",
    "name": "Gasthaus Zum Gupf",
    "neighborhood": "Rehetobel",
    "num_star": 1,
    "price_range": "Ab CHF 83 Bis CHF 161",
    "url": "https://de.viamichelin.ch/web/Restaurant/Rehetobel-9038-Gasthaus_Zum_Gupf-2j2il67",
    "website": "http://www.gupf.ch"
  },
  {
    "address": "3906 Saas Fee",
    "country": "ch",
    "cuisine": "Franz\u00f6sisch-klassisch",
    "latitude": "46.12452",
    "longitude": "7.92643",
    "name": "Waldhotel Fletschhorn",
    "neighborhood": "Fee",
    "num_star": 1,
    "price_range": "Ab CHF 95 Bis CHF 210",
    "url": "https://de.viamichelin.ch/web/Restaurant/Saas_Fee-3906-Waldhotel_Fletschhorn-2j2wzl7",
    "website": "http://www.fletschhorn.ch"
  },
  {
    "address": "Abacus Platz 1, 9301 Wittenbach",
    "country": "ch",
    "cuisine": "Kreativ",
    "latitude": "47.45105",
    "longitude": "9.39596",
    "name": "Segreto",
    "neighborhood": "Wittenbach",
    "num_star": 1,
    "price_range": "Ab CHF 62 Bis CHF 150",
    "url": "https://de.viamichelin.ch/web/Restaurant/Wittenbach-9301-Segreto-2j3a3zv",
    "website": "http://www.segreto.ch"
  },
  {
    "address": "Via Gunels 15, 7512 Champf\u00e8r",
    "country": "ch",
    "cuisine": "Mediterran",
    "latitude": "46.478737",
    "longitude": "9.812026",
    "name": "Talvo By Dalsass",
    "neighborhood": "Champf\u00e8r",
    "num_star": 1,
    "price_range": "Ab CHF 92 Bis CHF 220",
    "url": "https://de.viamichelin.ch/web/Restaurant/Champfer-7512-Talvo_By_Dalsass-2j3jiqv",
    "website": "http://www.talvo.ch"
  },
  {
    "address": "Scheunenberg 70, 3251 Wengi b. B\u00fcren",
    "country": "ch",
    "cuisine": "Franz\u00f6sisch,International",
    "latitude": "47.08153",
    "longitude": "7.40302",
    "name": "Sonne",
    "neighborhood": "B\u00fcren",
    "num_star": 1,
    "price_range": "Ab CHF 69 Bis CHF 159",
    "url": "https://de.viamichelin.ch/web/Restaurant/Wengi_b_Buren-3251-Sonne-2j4053m",
    "website": "http://www.sonne-scheunenberg.ch"
  },
  {
    "address": "Rue du Coll\u00e8ge 4, 2605 Sonceboz",
    "country": "ch",
    "cuisine": "Franz\u00f6sisch-klassisch",
    "latitude": "47.19634",
    "longitude": "7.17832",
    "name": "Du Cerf",
    "neighborhood": "Sonceboz",
    "num_star": 1,
    "price_range": "Ab CHF 155 Bis CHF 179",
    "url": "https://de.viamichelin.ch/web/Restaurant/Sonceboz-2605-Du_Cerf-2j4wwlv",
    "website": "http://www.cerf-sonceboz.ch"
  },
  {
    "address": "Hartlisbergstr. 39, 3612 Steffisburg-Station",
    "country": "ch",
    "cuisine": "Franz\u00f6sisch-modern",
    "latitude": "46.78747",
    "longitude": "7.620798",
    "name": "Panorama - Cayenne",
    "neighborhood": "Steffisburg-Station",
    "num_star": 1,
    "price_range": "Ab CHF 91 Bis CHF 155",
    "url": "https://de.viamichelin.ch/web/Restaurant/Steffisburg_Station-3612-Panorama_Cayenne-2j5g1fm",
    "website": "http://www.panorama-hartlisberg.ch"
  },
  {
    "address": "Kleindorfstr. 61, 8707 Uetikon am See",
    "country": "ch",
    "cuisine": "Franz\u00f6sisch-klassisch",
    "latitude": "47.26461",
    "longitude": "8.68295",
    "name": "Wirtschaft zum Wiesengrund",
    "neighborhood": "See",
    "num_star": 1,
    "price_range": "Ab CHF 52 Bis CHF 250",
    "url": "https://de.viamichelin.ch/web/Restaurant/Uetikon_am_See-8707-Wirtschaft_zum_Wiesengrund-2j5jr16",
    "website": "http://www.wiesengrund.ch"
  },
  {
    "address": "Rue du Ch\u00e2teau 2, 1800 Vevey",
    "country": "ch",
    "cuisine": "Kreativ",
    "latitude": "46.45846",
    "longitude": "6.84859",
    "name": "Denis Martin",
    "neighborhood": "Vevey",
    "num_star": 1,
    "price_range": "Ab CHF 240 Bis CHF 320",
    "url": "https://de.viamichelin.ch/web/Restaurant/Vevey-1800-Denis_Martin-2j5ygk0",
    "website": "http://www.denismartin.ch"
  },
  {
    "address": "Route de Donatyre 22, 1583 Villarepos",
    "country": "ch",
    "cuisine": "Moderne K\u00fcche",
    "latitude": "46.883114",
    "longitude": "7.069073",
    "name": "Auberge de la Croix Blanche",
    "neighborhood": "Villarepos",
    "num_star": 1,
    "price_range": "Ab CHF 75 Bis CHF 135",
    "url": "https://de.viamichelin.ch/web/Restaurant/Villarepos-1583-Auberge_de_la_Croix_Blanche-2j63z7w",
    "website": "http://www.croixblanche.ch"
  },
  {
    "address": "Route du Village 26, 1134 Vufflens-le-Ch\u00e2teau",
    "country": "ch",
    "cuisine": "Klassische K\u00fcche",
    "latitude": "46.52767",
    "longitude": "6.46933",
    "name": "L'Ermitage",
    "neighborhood": "Vufflens-le-Ch\u00e2teau",
    "num_star": 1,
    "price_range": "Ab CHF 75 Bis CHF 370",
    "url": "https://de.viamichelin.ch/web/Restaurant/Vufflens_le_Chateau-1134-L_Ermitage-2j6asf5",
    "website": "http://www.ravet.swiss"
  },
  {
    "address": "Sennh\u00fcttestr. 1, 8602 Wangen",
    "country": "ch",
    "cuisine": "Klassische K\u00fcche",
    "latitude": "47.4113",
    "longitude": "8.64549",
    "name": "Sternen - Badstube",
    "neighborhood": "Wangen",
    "num_star": 1,
    "price_range": "Ab CHF 52 Bis CHF 139",
    "url": "https://de.viamichelin.ch/web/Restaurant/Wangen-8602-Sternen_Badstube-2j6euf3",
    "website": "http://www.sternenwangen.ch"
  },
  {
    "address": "Weinbergstr. 75, 8006 Z\u00fcrich",
    "country": "ch",
    "cuisine": "Moderne K\u00fcche",
    "latitude": "47.383354",
    "longitude": "8.543385",
    "name": "mesa",
    "neighborhood": "Z\u00fcrich",
    "num_star": 1,
    "price_range": "Ab CHF 75 Bis CHF 135",
    "url": "https://de.viamichelin.ch/web/Restaurant/Zurich-8006-mesa-2j7u31w",
    "website": "http://www.mesa-restaurant.ch"
  },
  {
    "address": "Chemin du Mont-Blanc 1, 3963 Plans Mayens",
    "country": "ch",
    "cuisine": "Franz\u00f6sisch-modern",
    "latitude": "46.3153",
    "longitude": "7.462564",
    "name": "Le MontBlanc",
    "neighborhood": "Mayens",
    "num_star": 1,
    "price_range": "Ab CHF 55 Bis CHF 163",
    "url": "https://de.viamichelin.ch/web/Restaurant/Plans_Mayens-3963-Le_MontBlanc-2j9vskk",
    "website": "http://www.lecrans.com"
  },
  {
    "address": "Dorfstr. 30, 7563 Samnaun",
    "country": "ch",
    "cuisine": "Moderne K\u00fcche",
    "latitude": "46.94362",
    "longitude": "10.36009",
    "name": "La Miranda Gourmet St\u00fcbli",
    "neighborhood": "Samnaun",
    "num_star": 1,
    "price_range": "Ab CHF 83 Bis CHF 180",
    "url": "https://de.viamichelin.ch/web/Restaurant/Samnaun-7563-La_Miranda_Gourmet_Stubli-2juyn3c",
    "website": "http://www.hotelchasamontana.ch"
  },
  {
    "address": "Via Mezdi 27, 7500 Sankt Moritz",
    "country": "ch",
    "cuisine": "Mediterran",
    "latitude": "46.4825",
    "longitude": "9.83254",
    "name": "C\u00e0 d'Oro",
    "neighborhood": "Moritz",
    "num_star": 1,
    "price_range": "Ab CHF 142 Bis CHF 210",
    "url": "https://de.viamichelin.ch/web/Restaurant/Sankt_Moritz-7500-Ca_d_Oro-2jvgsob",
    "website": "http://www.kempinski.com/stmoritz"
  },
  {
    "address": "Chemin des Creux, 1936 Verbier",
    "country": "ch",
    "cuisine": "Moderne K\u00fcche",
    "latitude": "46.10349",
    "longitude": "7.22466",
    "name": "La Table d'Adrien",
    "neighborhood": "Verbier",
    "num_star": 1,
    "price_range": "Ab CHF 117 Bis CHF 215",
    "url": "https://de.viamichelin.ch/web/Restaurant/Verbier-1936-La_Table_d_Adrien-2jzj8cs",
    "website": "http://www.chalet-adrien.com"
  },
  {
    "address": "Rue d'Italie 49, 1800 Vevey",
    "country": "ch",
    "cuisine": "Franz\u00f6sisch-klassisch",
    "latitude": "46.45901",
    "longitude": "6.84735",
    "name": "Les Trois Couronnes",
    "neighborhood": "Vevey",
    "num_star": 1,
    "price_range": "Ab CHF 100 Bis CHF 175",
    "url": "https://de.viamichelin.ch/web/Restaurant/Vevey-1800-Les_Trois_Couronnes-2jzrkbl",
    "website": "http://www.hoteltroiscouronnes.ch"
  },
  {
    "address": "Rue d'Italie 1, 1800 Vevey",
    "country": "ch",
    "cuisine": "Franz\u00f6sisch-klassisch",
    "latitude": "46.45793",
    "longitude": "6.85199",
    "name": "Les Saisons",
    "neighborhood": "Vevey",
    "num_star": 1,
    "price_range": "Ab CHF 110 Bis CHF 187",
    "url": "https://de.viamichelin.ch/web/Restaurant/Vevey-1800-Les_Saisons-2jzs2zq",
    "website": "http://www.ghdl.ch"
  },
  {
    "address": "Route du Gymnase 2, 1400 Cheseaux",
    "country": "ch",
    "cuisine": "Moderne K\u00fcche",
    "latitude": "46.782",
    "longitude": "6.6758",
    "name": "Table de Mary",
    "neighborhood": "Cheseaux",
    "num_star": 1,
    "price_range": "Ab CHF 60 Bis CHF 104",
    "url": "https://de.viamichelin.ch/web/Restaurant/Cheseaux-1400-Table_de_Mary-2k3x1m3",
    "website": "http://www.latabledemary.ch"
  },
  {
    "address": "Stauffacherstr. 163, 8004 Z\u00fcrich Linkes",
    "country": "ch",
    "cuisine": "Moderne K\u00fcche",
    "latitude": "47.37787",
    "longitude": "8.52119",
    "name": "EquiTable im Sankt Meinrad",
    "neighborhood": "Linkes",
    "num_star": 1,
    "price_range": "Ab CHF 120 Bis CHF 180",
    "url": "https://de.viamichelin.ch/web/Restaurant/Zurich_Linkes-8004-EquiTable_im_Sankt_Meinrad-2k3z2o1",
    "website": "http://www.equi-table.ch"
  },
  {
    "address": "Via Johannes Badrutt 11, 7500 Sankt Moritz",
    "country": "ch",
    "cuisine": "Italienisch",
    "latitude": "46.50005",
    "longitude": "9.84637",
    "name": "Da Vittorio",
    "neighborhood": "Moritz",
    "num_star": 1,
    "price_range": "Ab CHF 140 Bis CHF 250",
    "url": "https://de.viamichelin.ch/web/Restaurant/Sankt_Moritz-7500-Da_Vittorio-2k52yz4",
    "website": "http://www.carlton-stmoritz.ch"
  },
  {
    "address": "Hofmattstr. 12, Zermatt",
    "country": "ch",
    "cuisine": "Italienisch",
    "latitude": "46.0216",
    "longitude": "7.74701",
    "name": "Capri",
    "neighborhood": "Zermatt",
    "num_star": 1,
    "price_range": "Ab CHF 96 Bis CHF 250",
    "url": "https://de.viamichelin.ch/web/Restaurant/Zermatt-3920-Capri-2k7p7di",
    "website": "http://www.montcervinpalace.ch"
  },
  {
    "address": "Dorfstr. 42, 8803 R\u00fcschlikon",
    "country": "ch",
    "cuisine": "Franz\u00f6sisch-modern",
    "latitude": "47.30849",
    "longitude": "8.55511",
    "name": "Die Rose",
    "neighborhood": "R\u00fcschlikon",
    "num_star": 1,
    "price_range": "Ab CHF 95 Bis CHF 160",
    "url": "https://de.viamichelin.ch/web/Restaurant/Ruschlikon-8803-Die_Rose-12jjd4zi6",
    "website": "http://www.die-rose.ch"
  },
  {
    "address": "Staffelh\u00f6henweg 61, 6356 Rigi Kaltbad",
    "country": "ch",
    "cuisine": "Kreativ,Schweizer K\u00fcche",
    "latitude": "47.048386",
    "longitude": "8.464353",
    "name": "Regina Montium",
    "neighborhood": "Kaltbad",
    "num_star": 1,
    "price_range": "Ab CHF 71 Bis CHF 155",
    "url": "https://de.viamichelin.ch/web/Restaurant/Rigi_Kaltbad-6356-Regina_Montium-12jji5es6",
    "website": "http://www.kraeuterhotel.ch"
  },
  {
    "address": "Via Serlas 27, 7500 Sankt Moritz",
    "country": "ch",
    "cuisine": "Kreativ",
    "latitude": "46.497852",
    "longitude": "9.841401",
    "name": "IGNIV by Andreas Caminada",
    "neighborhood": "Moritz",
    "num_star": 1,
    "price_range": "Ab CHF 158 Bis CHF 294",
    "url": "https://de.viamichelin.ch/web/Restaurant/Sankt_Moritz-7500-IGNIV_by_Andreas_Caminada-12jjv7hlb",
    "website": "http://www.badruttspalace.com"
  },
  {
    "address": "Rue de la Mairie 8, 1207 Gen\u00e8ve Rive Gauche",
    "country": "ch",
    "cuisine": "Toskanisch",
    "latitude": "46.202694",
    "longitude": "6.158401",
    "name": "Tosca",
    "neighborhood": "Gauche",
    "num_star": 1,
    "price_range": "Ab CHF 55 Bis CHF 130",
    "url": "https://de.viamichelin.ch/web/Restaurant/Geneve_Rive_Gauche-1207-Tosca-12jjvfy1c",
    "website": "http://www.tosca-geneva.ch"
  },
  {
    "address": "Chemin de la Fondelle 16, 1256 Troinex",
    "country": "ch",
    "cuisine": "Franz\u00f6sisch-modern",
    "latitude": "46.1625",
    "longitude": "6.14764",
    "name": "La Chaumi\u00e8re by Serge Labrosse-La Table du 7",
    "neighborhood": "Troinex",
    "num_star": 1,
    "price_range": "Ab CHF 115 Bis CHF 155",
    "url": "https://de.viamichelin.ch/web/Restaurant/Troinex-1256-La_Chaumiere_by_Serge_Labrosse_La_Table_du_7-12jjvj3tg",
    "website": "http://www.lachaumiere.ch"
  },
  {
    "address": "Alpinastr. 23, 3780 Gstaad",
    "country": "ch",
    "cuisine": "Moderne K\u00fcche",
    "latitude": "46.4766",
    "longitude": "7.28821",
    "name": "Sommet",
    "neighborhood": "Gstaad",
    "num_star": 1,
    "price_range": "Ab CHF 82 Bis CHF 178",
    "url": "https://de.viamichelin.ch/web/Restaurant/Gstaad-3780-Sommet-3wwt3fp1",
    "website": "http://www.thealpinagstaad.ch"
  },
  {
    "address": "Alpinastr. 23, 3780 Gstaad",
    "country": "ch",
    "cuisine": "Japanisch",
    "latitude": "46.4766",
    "longitude": "7.28821",
    "name": "MEGU",
    "neighborhood": "Gstaad",
    "num_star": 1,
    "price_range": "Ab CHF 69 Bis CHF 189",
    "url": "https://de.viamichelin.ch/web/Restaurant/Gstaad-3780-MEGU-3wwt3yzo",
    "website": "http://www.thealpinagstaad.ch"
  },
  {
    "address": "Rue du Scex 33, 1950 Sion",
    "country": "ch",
    "cuisine": "Franz\u00f6sisch-modern",
    "latitude": "46.23238",
    "longitude": "7.36576",
    "name": "Damien Germanier",
    "neighborhood": "Sion",
    "num_star": 1,
    "price_range": "Ab CHF 110 Bis CHF 200",
    "url": "https://de.viamichelin.ch/web/Restaurant/Sion-1950-Damien_Germanier-3wwta805",
    "website": "http://www.damiengermanier.ch"
  },
  {
    "address": "Rue Vautier 45, 1227 Carouge",
    "country": "ch",
    "cuisine": "Moderne K\u00fcche",
    "latitude": "46.18329",
    "longitude": "6.14158",
    "name": "Le Flacon",
    "neighborhood": "Carouge",
    "num_star": 1,
    "price_range": "Ab CHF 75 Bis CHF 120",
    "url": "https://de.viamichelin.ch/web/Restaurant/Carouge-1227-Le_Flacon-3wwu0bmi",
    "website": "http://www.leflacon.ch"
  },
  {
    "address": "Bahnhofstr. 28, 9306 Freidorf",
    "country": "ch",
    "cuisine": "Franz\u00f6sisch-klassisch",
    "latitude": "47.48604",
    "longitude": "9.39194",
    "name": "Mammertsberg",
    "neighborhood": "Freidorf",
    "num_star": 1,
    "price_range": "Ab CHF 72 Bis CHF 168",
    "url": "https://de.viamichelin.ch/web/Restaurant/Freidorf-9306-Mammertsberg-3wwugmi0",
    "website": "http://www.mammertsberg.ch"
  },
  {
    "address": "Miez Vitg 6, 7130 Schnaus",
    "country": "ch",
    "cuisine": "Regional,Traditionelle K\u00fcche",
    "latitude": "46.777493",
    "longitude": "9.178602",
    "name": "Stiva Veglia",
    "neighborhood": "Schnaus",
    "num_star": 1,
    "price_range": "Ab CHF 85 Bis CHF 146",
    "url": "https://de.viamichelin.ch/web/Restaurant/Schnaus-7130-Stiva_Veglia-7wowd56",
    "website": "http://www.stiva.veglia.ch"
  },
  {
    "address": "Sternengasse 5, 7208 MALANS",
    "country": "ch",
    "cuisine": "Klassische K\u00fcche,Traditionelle K\u00fcche",
    "latitude": "46.98265",
    "longitude": "9.57611",
    "name": "Weiss Kreuz",
    "neighborhood": "MALANS",
    "num_star": 1,
    "price_range": "Ab CHF 80 Bis CHF 135",
    "url": "https://de.viamichelin.ch/web/Restaurant/MALANS-7208-Weiss_Kreuz-7x1ltx8",
    "website": "http://www.weisskreuzmalans.ch"
  },
  {
    "address": "Crusch Plantaun 217, 7527 Brail",
    "country": "ch",
    "cuisine": "Kreativ",
    "latitude": "46.65403",
    "longitude": "10.03354",
    "name": "Vivanda",
    "neighborhood": "Brail",
    "num_star": 1,
    "price_range": "Ab CHF 168 Bis CHF 220",
    "url": "https://de.viamichelin.ch/web/Restaurant/Brail-7527-Vivanda-7y131rp",
    "website": "http://www.inlain.ch"
  },
  {
    "address": "Seestr. 18a, 6052 HERGISWIL",
    "country": "ch",
    "cuisine": "Franz\u00f6sisch,Moderne K\u00fcche",
    "latitude": "46.98348",
    "longitude": "8.311516",
    "name": "Seerestaurant Belv\u00e9d\u00e8re",
    "neighborhood": "HERGISWIL",
    "num_star": 1,
    "price_range": "Ab CHF 58 Bis CHF 175",
    "url": "https://de.viamichelin.ch/web/Restaurant/HERGISWIL-6052-Seerestaurant_Belvedere-7y268zh",
    "website": "http://www.seerestaurant-belvedere.ch"
  },
  {
    "address": "Hauptstr. 41, 4104 Oberwil",
    "country": "ch",
    "cuisine": "Mediterran,Klassische K\u00fcche",
    "latitude": "47.51404",
    "longitude": "7.55593",
    "name": "Schl\u00fcssel",
    "neighborhood": "Oberwil",
    "num_star": 1,
    "price_range": "Ab CHF 85 Bis CHF 135",
    "url": "https://de.viamichelin.ch/web/Restaurant/Oberwil-4104-Schlussel-9ith8o9s",
    "website": "http://www.schluessel-oberwil.ch"
  },
  {
    "address": "Gotthardstr. 4, 6490 Andermatt",
    "country": "ch",
    "cuisine": "Japanisch",
    "latitude": "46.6364",
    "longitude": "8.594521",
    "name": "The Japanese Restaurant",
    "neighborhood": "Andermatt",
    "num_star": 1,
    "price_range": "Ab CHF 98 Bis CHF 150",
    "url": "https://de.viamichelin.ch/web/Restaurant/Andermatt-6490-The_Japanese_Restaurant-9iuphxfd",
    "website": "http://www.chediandermatt.com"
  },
  {
    "address": "Hopfenstr. 2, 8045 Z\u00fcrich",
    "country": "ch",
    "cuisine": "Kreativ",
    "latitude": "47.36509",
    "longitude": "8.52099",
    "name": "Maison Manesse",
    "neighborhood": "Z\u00fcrich",
    "num_star": 1,
    "price_range": "Ab CHF 60 Bis CHF 130",
    "url": "https://de.viamichelin.ch/web/Restaurant/Zurich-8045-Maison_Manesse-9iuqus1z",
    "website": "http://www.maisonmanesse.ch"
  },
  {
    "address": "Krummackerstr. 4, 4416 Bubendorf",
    "country": "ch",
    "cuisine": "Klassische K\u00fcche,Moderne K\u00fcche",
    "latitude": "47.45462",
    "longitude": "7.73866",
    "name": "Le Murenberg",
    "neighborhood": "Bubendorf",
    "num_star": 1,
    "price_range": "Ab CHF 73 Bis CHF 115",
    "url": "https://de.viamichelin.ch/web/Restaurant/Bubendorf-4416-Le_Murenberg-ox150ne",
    "website": "http://www.lemurenberg.ch"
  },
  {
    "address": "Rue de la Fontanette 41, 2026 Sauges",
    "country": "ch",
    "cuisine": "Franz\u00f6sisch-klassisch",
    "latitude": "46.887257",
    "longitude": "6.76364",
    "name": "La Maison du Village",
    "neighborhood": "Sauges",
    "num_star": 1,
    "price_range": "Ab CHF 65 Bis CHF 98",
    "url": "https://de.viamichelin.ch/web/Restaurant/Sauges-2026-La_Maison_du_Village-oyfd5lv",
    "website": "http://www.maisonduvillage.ch"
  },
  {
    "address": "Seeallee 10, 9410 Heiden",
    "country": "ch",
    "cuisine": "Klassische K\u00fcche,Kreativ",
    "latitude": "47.44617",
    "longitude": "9.53172",
    "name": "Gasthaus Zur Fernsicht - Incantare",
    "neighborhood": "Heiden",
    "num_star": 1,
    "price_range": "Ab CHF 110 Bis CHF 185",
    "url": "https://de.viamichelin.ch/web/Restaurant/Heiden-9410-Gasthaus_Zur_Fernsicht_Incantare-so9gbbjs",
    "website": "http://www.fernsicht-heiden.ch"
  },
  {
    "address": "Rue du Flon 8, 1003 Lausanne",
    "country": "ch",
    "cuisine": "Franz\u00f6sisch-kreativ,International",
    "latitude": "46.55718",
    "longitude": "6.68914",
    "name": "Eligo",
    "neighborhood": "Lausanne",
    "num_star": 1,
    "price_range": "Ab CHF 72 Bis CHF 137",
    "url": "https://de.viamichelin.ch/web/Restaurant/Lausanne-1003-Eligo-soa2la53",
    "website": "http://www.eligo-restaurant.ch"
  },
  {
    "address": "Rue de La Corraterie 21, 1204 Gen\u00e8ve",
    "country": "ch",
    "cuisine": "Italienisch",
    "latitude": "46.20181",
    "longitude": "6.14385",
    "name": "La Bottega",
    "neighborhood": "Gen\u00e8ve",
    "num_star": 1,
    "price_range": "Ab CHF 55 Bis CHF 123",
    "url": "https://de.viamichelin.ch/web/Restaurant/Geneve-1204-La_Bottega-soa5v7fk",
    "website": "http://www.labottegatrattoria.com"
  },
  {
    "address": "Holzh\u00e4usernstr. 2, 6313 Menzingen",
    "country": "ch",
    "cuisine": "Klassische K\u00fcche",
    "latitude": "47.1782",
    "longitude": "8.59079",
    "name": "L\u00f6wen",
    "neighborhood": "Menzingen",
    "num_star": 1,
    "price_range": "Ab CHF 132 Bis CHF 188",
    "url": "https://de.viamichelin.ch/web/Restaurant/Menzingen-6313-Lowen-soak7kdo",
    "website": "http://www.kochen-fuer-freunde.ch"
  },
  {
    "address": "Route des Echelettes 8, 1654 CERNIAT",
    "country": "ch",
    "cuisine": "Kreativ,Klassische K\u00fcche",
    "latitude": "46.653656",
    "longitude": "7.196262",
    "name": "La Pinte des Mossettes",
    "neighborhood": "CERNIAT",
    "num_star": 1,
    "price_range": "Ab CHF 98 Bis CHF 128",
    "url": "https://de.viamichelin.ch/web/Restaurant/CERNIAT-1654-La_Pinte_des_Mossettes-ykqb7ich",
    "website": "http://www.lapintedesmossettes.ch"
  },
  {
    "address": "Promenade 115, 7270 Davos Platz",
    "country": "ch",
    "cuisine": "Franz\u00f6sisch-modern",
    "latitude": "46.802563",
    "longitude": "9.835745",
    "name": "Glow by Armin Amrein",
    "neighborhood": "Platz",
    "num_star": 1,
    "price_range": "Ab CHF 69 Bis CHF 195",
    "url": "https://de.viamichelin.ch/web/Restaurant/Davos_Platz-7270-Glow_by_Armin_Amrein-ykr65mo0",
    "website": "http://www.glow-davos.ch"
  },
  {
    "address": "Domaine de Rochegrise 252, 1884 Villars-sur-Ollon",
    "country": "ch",
    "cuisine": "Franz\u00f6sisch-klassisch",
    "latitude": "46.29346",
    "longitude": "7.0622025",
    "name": "Le Jardin des Alpes",
    "neighborhood": "Villars-sur-Ollon",
    "num_star": 1,
    "price_range": "Ab CHF 97 Bis CHF 170",
    "url": "https://de.viamichelin.ch/web/Restaurant/Villars_sur_Ollon-1884-Le_Jardin_des_Alpes-ykr6t0qc",
    "website": "http://www.royalp.ch"
  },
  {
    "address": "Berneggstr. 2, 9000 Sankt Gallen",
    "country": "ch",
    "cuisine": "Kreativ",
    "latitude": "47.42158",
    "longitude": "9.37545",
    "name": "Einstein Gourmet",
    "neighborhood": "Gallen",
    "num_star": 2,
    "price_range": "Ab CHF 125 Bis CHF 185",
    "url": "https://de.viamichelin.ch/web/Restaurant/Sankt_Gallen-9000-Einstein_Gourmet-2jv3m2a",
    "website": "http://www.einstein.ch/restaurants/einstein-gourmet.html"
  },
  {
    "address": "via del Segnale 10, 6612 Ascona",
    "country": "ch",
    "cuisine": "Kreativ",
    "latitude": "46.14969",
    "longitude": "8.790414",
    "name": "Ecco",
    "neighborhood": "Ascona",
    "num_star": 2,
    "price_range": "Ab CHF 180 Bis CHF 210",
    "url": "https://de.viamichelin.ch/web/Restaurant/Ascona-6612-Ecco-2k3vimn",
    "website": "http://www.giardino.ch"
  },
  {
    "address": "Kurhausstr. 65, 8032 Z\u00fcrich",
    "country": "ch",
    "cuisine": "Kreativ",
    "latitude": "47.372856",
    "longitude": "8.56978",
    "name": "The Restaurant",
    "neighborhood": "Z\u00fcrich",
    "num_star": 2,
    "price_range": "Ab CHF 98 Bis CHF 298",
    "url": "https://de.viamichelin.ch/web/Restaurant/Zurich-8032-The_Restaurant-2k40yfr",
    "website": "http://www.thedoldergrand.com"
  },
  {
    "address": "D\u00f6ltschiweg 234, 8055 Z\u00fcrich",
    "country": "ch",
    "cuisine": "Kreativ",
    "latitude": "47.362717",
    "longitude": "8.496154",
    "name": "Ecco Z\u00fcrich",
    "neighborhood": "Z\u00fcrich",
    "num_star": 2,
    "price_range": "Ab CHF 150 Bis CHF 235",
    "url": "https://de.viamichelin.ch/web/Restaurant/Zurich-8055-Ecco_Zurich-x8vibu76",
    "website": "http://www.atlantisbygiardino.ch"
  },
  {
    "address": "Chemin de Ch\u00e2teauvieux 16, 1242 Peney-Dessus",
    "country": "ch",
    "cuisine": "Kreativ",
    "latitude": "46.20098",
    "longitude": "6.03733",
    "name": "Domaine de Ch\u00e2teauvieux",
    "neighborhood": "Peney-Dessus",
    "num_star": 2,
    "price_range": "Ab CHF 96 Bis CHF 290",
    "url": "https://de.viamichelin.ch/web/Restaurant/Peney_Dessus-1242-Domaine_de_Chateauvieux-2ipbrc8",
    "website": "http://www.chateauvieux.ch"
  },
  {
    "address": "Bruderholzallee 42, 4059 Basel",
    "country": "ch",
    "cuisine": "Kreativ,Moderne K\u00fcche",
    "latitude": "47.53376",
    "longitude": "7.58726",
    "name": "Stucki",
    "neighborhood": "Basel",
    "num_star": 2,
    "price_range": "Ab CHF 60 Bis CHF 240",
    "url": "https://de.viamichelin.ch/web/Restaurant/Basel-4059-Stucki-2iqoxkw",
    "website": "http://www.tanjagrandits.ch"
  },
  {
    "address": "Rue du Temple 10, 1304 Cossonay",
    "country": "ch",
    "cuisine": "Franz\u00f6sisch-modern,Kreativ",
    "latitude": "46.61463",
    "longitude": "6.50259",
    "name": "Le Cerf",
    "neighborhood": "Cossonay",
    "num_star": 2,
    "price_range": "Ab CHF 88 Bis CHF 338",
    "url": "https://de.viamichelin.ch/web/Restaurant/Cossonay-1304-Le_Cerf-2isowh1",
    "website": "http://www.carlocrisci.ch"
  },
  {
    "address": "Oltnerstr. 19, 4614 H\u00e4gendorf",
    "country": "ch",
    "cuisine": "Franz\u00f6sisch-klassisch,Mediterran",
    "latitude": "47.33392",
    "longitude": "7.84625",
    "name": "Lampart's",
    "neighborhood": "H\u00e4gendorf",
    "num_star": 2,
    "price_range": "Ab CHF 63 Bis CHF 235",
    "url": "https://de.viamichelin.ch/web/Restaurant/Hagendorf-4614-Lampart_s-2iw6m8p",
    "website": "http://www.lamparts.ch"
  },
  {
    "address": "Seestr. 160, 8700 K\u00fcsnacht",
    "country": "ch",
    "cuisine": "Moderne K\u00fcche",
    "latitude": "47.31543",
    "longitude": "8.58023",
    "name": "RICO'S",
    "neighborhood": "K\u00fcsnacht",
    "num_star": 2,
    "price_range": "Ab CHF 63 Bis CHF 210",
    "url": "https://de.viamichelin.ch/web/Restaurant/Kusnacht-8700-RICO_S-2ix2b5r",
    "website": "http://www.ricozandonella.ch"
  },
  {
    "address": "Place du Port 17, 1006 Lausanne",
    "country": "ch",
    "cuisine": "Kreativ",
    "latitude": "46.55665",
    "longitude": "6.68678",
    "name": "Anne-Sophie Pic",
    "neighborhood": "Lausanne",
    "num_star": 2,
    "price_range": "Ab CHF 95 Bis CHF 385",
    "url": "https://de.viamichelin.ch/web/Restaurant/Lausanne-1006-Anne_Sophie_Pic-2ixmtdm",
    "website": "http://www.pic-beaurivagepalace.ch"
  },
  {
    "address": "Route de Blonay 4, 1817 Brent",
    "country": "ch",
    "cuisine": "Franz\u00f6sisch-modern",
    "latitude": "46.45897",
    "longitude": "6.90109",
    "name": "Le Pont de Brent",
    "neighborhood": "Brent",
    "num_star": 2,
    "price_range": "Ab CHF 88 Bis CHF 240",
    "url": "https://de.viamichelin.ch/web/Restaurant/Brent-1817-Le_Pont_de_Brent-2j0dp94",
    "website": "http://www.lepontdebrent.ch"
  },
  {
    "address": "Rue de la Gare 2, 2340 Le Noirmont",
    "country": "ch",
    "cuisine": "Franz\u00f6sisch-modern",
    "latitude": "47.22362",
    "longitude": "6.9559393",
    "name": "Georges Wenger",
    "neighborhood": "Noirmont",
    "num_star": 2,
    "price_range": "Ab CHF 94 Bis CHF 250",
    "url": "https://de.viamichelin.ch/web/Restaurant/Le_Noirmont-2340-Georges_Wenger-2j16nke",
    "website": "http://www.georges-wenger.ch"
  },
  {
    "address": "Ravaischstr. 12, 7563 Samnaun",
    "country": "ch",
    "cuisine": "Kreativ",
    "latitude": "46.95194",
    "longitude": "10.37074",
    "name": "Homann's Restaurant",
    "neighborhood": "Samnaun",
    "num_star": 2,
    "price_range": "Ab CHF 161 Bis CHF 209",
    "url": "https://de.viamichelin.ch/web/Restaurant/Samnaun-7563-Homann_s_Restaurant-2j327kv",
    "website": "http://www.hotel-homann.ch"
  },
  {
    "address": "Schlagstrasse, 6422 Steinen",
    "country": "ch",
    "cuisine": "Franz\u00f6sisch-klassisch",
    "latitude": "47.06223",
    "longitude": "8.62123",
    "name": "Adelboden",
    "neighborhood": "Steinen",
    "num_star": 2,
    "price_range": "Ab CHF 138 Bis CHF 195",
    "url": "https://de.viamichelin.ch/web/Restaurant/Steinen-6422-Adelboden-2j43h47",
    "website": "http://www.wiget-adelboden.ch"
  },
  {
    "address": "Rue du Bourg 1, 3960 Sierre",
    "country": "ch",
    "cuisine": "Franz\u00f6sisch-modern",
    "latitude": "46.29292",
    "longitude": "7.5322795",
    "name": "Didier de Courten",
    "neighborhood": "Sierre",
    "num_star": 2,
    "price_range": "Ab CHF 125 Bis CHF 260",
    "url": "https://de.viamichelin.ch/web/Restaurant/Sierre-3960-Didier_de_Courten-2j4e38q",
    "website": "http://www.hotel-terminus.ch"
  },
  {
    "address": "Oberdorfstr. 8, 8556 Wigoltingen",
    "country": "ch",
    "cuisine": "Franz\u00f6sisch-klassisch",
    "latitude": "47.59569",
    "longitude": "9.03271",
    "name": "Taverne zum Sch\u00e4fli",
    "neighborhood": "Wigoltingen",
    "num_star": 2,
    "price_range": "Ab CHF 79 Bis CHF 220",
    "url": "https://de.viamichelin.ch/web/Restaurant/Wigoltingen-8556-Taverne_zum_Schafli-2j6yeq4",
    "website": "http://www.schaefli-wigoltingen.ch"
  },
  {
    "address": "Hofmattstr. 4, 3929 Zermatt",
    "country": "ch",
    "cuisine": "Kreativ",
    "latitude": "46.02202",
    "longitude": "7.74779",
    "name": "After Seven",
    "neighborhood": "Zermatt",
    "num_star": 2,
    "price_range": "Ab CHF 127 Bis CHF 187",
    "url": "https://de.viamichelin.ch/web/Restaurant/Zermatt-3929-After_Seven-3wwtew0m",
    "website": "http://www.backstagehotel.ch"
  },
  {
    "address": "Via Maistra 3, 7512 Champf\u00e8r",
    "country": "ch",
    "cuisine": "Kreativ",
    "latitude": "46.47763",
    "longitude": "9.81117",
    "name": "Ecco St. Moritz",
    "neighborhood": "Champf\u00e8r",
    "num_star": 2,
    "price_range": "Ab CHF 190 Bis CHF 240",
    "url": "https://de.viamichelin.ch/web/Restaurant/Champfer-7512-Ecco_St_Moritz-oy1tt62",
    "website": "http://www.giardino-mountain.ch"
  },
  {
    "address": "Poststr. 560, 7132 Vals",
    "country": "ch",
    "cuisine": "Kreativ",
    "latitude": "46.622734",
    "longitude": "9.18134",
    "name": "7132 Silver",
    "neighborhood": "Vals",
    "num_star": 2,
    "price_range": "Ab CHF 225 Bis CHF 275",
    "url": "https://de.viamichelin.ch/web/Restaurant/Vals-7132-7132_Silver-soa7igdi",
    "website": "http://www.7132.com"
  },
  {
    "address": "Rue d'Yverdon 1, 1023 Crissier",
    "country": "ch",
    "cuisine": "Franz\u00f6sisch-klassisch",
    "latitude": "46.55408",
    "longitude": "6.57679",
    "name": "B. Violier - Restaurant de l'H\u00f4tel de Ville",
    "neighborhood": "Crissier",
    "num_star": 3,
    "price_range": "Ab CHF 190 Bis CHF 390",
    "url": "https://de.viamichelin.ch/web/Restaurant/Crissier-1023-B_Violier_Restaurant_de_l_Hotel_de_Ville-2isyc66",
    "website": "http://www.restaurantcrissier.com"
  },
  {
    "address": "Schlossgasse 71, 7414 F\u00fcrstenau",
    "country": "ch",
    "cuisine": "Kreativ",
    "latitude": "46.72112",
    "longitude": "9.44616",
    "name": "Schauenstein",
    "neighborhood": "F\u00fcrstenau",
    "num_star": 3,
    "price_range": "Ab CHF 195 Bis CHF 326",
    "url": "https://de.viamichelin.ch/web/Restaurant/Furstenau-7414-Schauenstein-2iusud3",
    "website": "http://www.schauenstein.ch"
  },
  {
    "address": "Blumenrain 8, 4001 Basel",
    "country": "ch",
    "cuisine": "Franz\u00f6sisch-klassisch",
    "latitude": "47.56047",
    "longitude": "7.5874076",
    "name": "Cheval Blanc by Peter Knogl",
    "neighborhood": "Basel",
    "num_star": 3,
    "price_range": "Ab CHF 98 Bis CHF 235",
    "url": "https://de.viamichelin.ch/web/Restaurant/Basel-4001-Cheval_Blanc_by_Peter_Knogl-2jcfvul",
    "website": "http://www.lestroisrois.com"
  }
]