[
  {
    "address": "43 Elystan St, Chelsea SW3 3NT",
    "country": "gb",
    "cuisine": "Modern British",
    "latitude": "51.49124",
    "longitude": "-0.16724",
    "name": "Elystan Street",
    "neighborhood": "3NT",
    "num_star": 1,
    "price_range": "From \u00a343 to \u00a388",
    "url": "https://www.viamichelin.co.uk/web/Restaurant/Chelsea-SW3_3NT-Elystan_Street-11nk8n1or",
    "website": "http://www.elystanstreet.com"
  },
  {
    "address": "Courtlands Ln., Lympstone EX8 3NZ",
    "country": "gb",
    "cuisine": "Modern cuisine",
    "latitude": "50.64069",
    "longitude": "-3.4186063",
    "name": "Lympstone Manor",
    "neighborhood": "3NZ",
    "num_star": 1,
    "price_range": "From \u00a360 to \u00a3145",
    "url": "https://www.viamichelin.co.uk/web/Restaurant/Lympstone-EX8_3NZ-Lympstone_Manor-11nkar3qo",
    "website": "http://www.lympstonemanor.co.uk/"
  },
  {
    "address": "St James's Market, 1 Carlton St, Saint James's SW1Y 4QQ",
    "country": "gb",
    "cuisine": "Scandinavian",
    "latitude": "51.508713",
    "longitude": "-0.13340715",
    "name": "Aquavit",
    "neighborhood": "4QQ",
    "num_star": 1,
    "price_range": "From \u00a324 to \u00a358",
    "url": "https://www.viamichelin.co.uk/web/Restaurant/Saint_James_s-SW1Y_4QQ-Aquavit-12isedh1y",
    "website": "http://www.aquavitrestaurants.com"
  },
  {
    "address": "10 Trinity Sq, City of London EC3N 4AJ",
    "country": "gb",
    "cuisine": "Modern French",
    "latitude": "51.510372",
    "longitude": "-0.0788981",
    "name": "La Dame de Pic",
    "neighborhood": "4AJ",
    "num_star": 1,
    "price_range": "From \u00a339 to \u00a391",
    "url": "https://www.viamichelin.co.uk/web/Restaurant/City_of_London-EC3N_4AJ-La_Dame_de_Pic-12isgv4i9",
    "website": "http://meiume.com"
  },
  {
    "address": "77 South St, Dorking RH4 2JU",
    "country": "gb",
    "cuisine": "Modern British",
    "latitude": "51.228825",
    "longitude": "-0.3346741",
    "name": "Sorrel",
    "neighborhood": "2JU",
    "num_star": 1,
    "price_range": "From \u00a335 to \u00a395",
    "url": "https://www.viamichelin.co.uk/web/Restaurant/Dorking-RH4_2JU-Sorrel-12xjnrjgv",
    "website": "http://www.sorrelrestaurant.co.uk/"
  },
  {
    "address": "37 Conduit St, Mayfair W1S 2YF",
    "country": "gb",
    "cuisine": "Modern cuisine",
    "latitude": "51.51118",
    "longitude": "-0.14303",
    "name": "Alyn Williams at The Westbury",
    "neighborhood": "2YF",
    "num_star": 1,
    "price_range": "From \u00a330 to \u00a390",
    "url": "https://www.viamichelin.co.uk/web/Restaurant/Mayfair-W1S_2YF-Alyn_Williams_at_The_Westbury-2v6kfov9",
    "website": "http://www.westburymayfair.com/alyn-williams-at-the-westbury-,restaurent_viewItem_2-en.html"
  },
  {
    "address": "3 South Pl, Finsbury EC2M 2AF",
    "country": "gb",
    "cuisine": "Seafood",
    "latitude": "51.51894",
    "longitude": "-0.08625",
    "name": "Angler",
    "neighborhood": "2AF",
    "num_star": 1,
    "price_range": "From \u00a334 to \u00a372",
    "url": "https://www.viamichelin.co.uk/web/Restaurant/Finsbury-EC2M_2AF-Angler-2v6wkvdv",
    "website": "http://www.anglerrestaurant.com"
  },
  {
    "address": "58 Poland St, Soho W1F 7NR",
    "country": "gb",
    "cuisine": "Modern cuisine",
    "latitude": "51.51383",
    "longitude": "-0.13673002",
    "name": "Social Eating House",
    "neighborhood": "7NR",
    "num_star": 1,
    "price_range": "From \u00a327 to \u00a360",
    "url": "https://www.viamichelin.co.uk/web/Restaurant/Soho-W1F_7NR-Social_Eating_House-2v6zdh91",
    "website": "http://www.socialeatinghouse.com"
  },
  {
    "address": "199 Tooley St, Bermondsey SE1 2JX",
    "country": "gb",
    "cuisine": "Modern cuisine",
    "latitude": "51.50268",
    "longitude": "-0.077740006",
    "name": "Story",
    "neighborhood": "2JX",
    "num_star": 1,
    "price_range": "From \u00a380 to \u00a3145",
    "url": "https://www.viamichelin.co.uk/web/Restaurant/Bermondsey-SE1_2JX-Story-2v6zg2eu",
    "website": "http://www.restaurantstory.co.uk/"
  },
  {
    "address": "London Hilton Hotel, 22 Park Ln (28th floor), Mayfair W1K 1BE",
    "country": "gb",
    "cuisine": "Modern cuisine",
    "latitude": "51.50539",
    "longitude": "-0.15039003",
    "name": "Galvin at Windows",
    "neighborhood": "1BE",
    "num_star": 1,
    "price_range": "From \u00a337 to \u00a382",
    "url": "https://www.viamichelin.co.uk/web/Restaurant/Mayfair-W1K_1BE-Galvin_at_Windows-32fts8c",
    "website": "http://www.galvinatwindows.com"
  },
  {
    "address": "12a Berkeley Square House, Berkeley Sq., Mayfair W1J 6BS",
    "country": "gb",
    "cuisine": "Indian",
    "latitude": "51.50973",
    "longitude": "-0.14494",
    "name": "Benares",
    "neighborhood": "6BS",
    "num_star": 1,
    "price_range": "From \u00a329 to \u00a398",
    "url": "https://www.viamichelin.co.uk/web/Restaurant/Mayfair-W1J_6BS-Benares-32g7o7n",
    "website": "http://www.benaresrestaurant.com"
  },
  {
    "address": "15 Broadwick St, Soho W1F 0DL",
    "country": "gb",
    "cuisine": "Chinese",
    "latitude": "51.51367",
    "longitude": "-0.13519998",
    "name": "Yauatcha Soho",
    "neighborhood": "0DL",
    "num_star": 1,
    "price_range": "From \u00a325 to \u00a365",
    "url": "https://www.viamichelin.co.uk/web/Restaurant/Soho-W1F_0DL-Yauatcha_Soho-32gq7bi",
    "website": "http://www.yauatcha.com"
  },
  {
    "address": "150 Piccadilly, St James's W1J 9BR",
    "country": "gb",
    "cuisine": "Modern British",
    "latitude": "51.50728",
    "longitude": "-0.14141001",
    "name": "Ritz Restaurant",
    "neighborhood": "9BR",
    "num_star": 1,
    "price_range": "From \u00a357 to \u00a3123",
    "url": "https://www.viamichelin.co.uk/web/Restaurant/St_James_s-W1J_9BR-Ritz_Restaurant-32gsilt",
    "website": "http://www.theritzlondon.com"
  },
  {
    "address": "34 Charlotte St, Bloomsbury W1T 2NH",
    "country": "gb",
    "cuisine": "Creative",
    "latitude": "51.519",
    "longitude": "-0.13511002",
    "name": "Pied \u00e0 Terre",
    "neighborhood": "2NH",
    "num_star": 1,
    "price_range": "From \u00a338 to \u00a380",
    "url": "https://www.viamichelin.co.uk/web/Restaurant/Bloomsbury-W1T_2NH-Pied_a_Terre-32hlg1u",
    "website": "http://www.pied-a-terre.co.uk/"
  },
  {
    "address": "8 Hanway Pl., Bloomsbury W1T 1HD",
    "country": "gb",
    "cuisine": "Chinese",
    "latitude": "51.5171",
    "longitude": "-0.13143998",
    "name": "Hakkasan Hanway Place",
    "neighborhood": "1HD",
    "num_star": 1,
    "price_range": "From \u00a335 to \u00a3135",
    "url": "https://www.viamichelin.co.uk/web/Restaurant/Bloomsbury-W1T_1HD-Hakkasan_Hanway_Place-32hpjlk",
    "website": "http://hakkasan.com/locations/hakkasan-hanway-place/"
  },
  {
    "address": "Wilton Pl, Belgravia SW1X 7RL",
    "country": "gb",
    "cuisine": "Modern cuisine",
    "latitude": "51.50171",
    "longitude": "-0.15614",
    "name": "Marcus",
    "neighborhood": "7RL",
    "num_star": 1,
    "price_range": "From \u00a355 to \u00a3120",
    "url": "https://www.viamichelin.co.uk/web/Restaurant/Belgravia-SW1X_7RL-Marcus-32hyp04",
    "website": "http://www.marcus-wareing.com/home"
  },
  {
    "address": "15 Beeston Pl, Victoria SW1W 0JW",
    "country": "gb",
    "cuisine": "Traditional British",
    "latitude": "51.49763",
    "longitude": "-0.14556",
    "name": "Dining Room at The Goring",
    "neighborhood": "0JW",
    "num_star": 1,
    "price_range": "From \u00a352 to \u00a364",
    "url": "https://www.viamichelin.co.uk/web/Restaurant/Victoria-SW1W_0JW-Dining_Room_at_The_Goring-32i4m7m",
    "website": "http://www.thegoring.com"
  },
  {
    "address": "41 Buckingham Gate, Victoria SW1E 6AF",
    "country": "gb",
    "cuisine": "Indian",
    "latitude": "51.49863",
    "longitude": "-0.13726003",
    "name": "Quilon",
    "neighborhood": "6AF",
    "num_star": 1,
    "price_range": "From \u00a331 to \u00a360",
    "url": "https://www.viamichelin.co.uk/web/Restaurant/Victoria-SW1E_6AF-Quilon-32i8oux",
    "website": "http://www.quilon.co.uk/"
  },
  {
    "address": "Tower 42 (24th floor), 25 Old Broad St, City of London EC2N 1HQ",
    "country": "gb",
    "cuisine": "Modern cuisine",
    "latitude": "51.51521",
    "longitude": "-0.08431",
    "name": "City Social",
    "neighborhood": "1HQ",
    "num_star": 1,
    "price_range": "From \u00a347 to \u00a390",
    "url": "https://www.viamichelin.co.uk/web/Restaurant/City_of_London-EC2N_1HQ-City_Social-32jge5n",
    "website": "http://www.citysociallondon.com"
  },
  {
    "address": "1 Princes St, Edinburgh EH2 2EQ",
    "country": "gb",
    "cuisine": "Modern cuisine",
    "latitude": "55.95298",
    "longitude": "-3.18966",
    "name": "Number One",
    "neighborhood": "2EQ",
    "num_star": 1,
    "price_range": "From \u00a380 to \u00a380",
    "url": "https://www.viamichelin.co.uk/web/Restaurant/Edinburgh-EH2_2EQ-Number_One-32lv0n0",
    "website": "http://https://www.roccofortehotels.com/hotels-and-resorts/the-balmoral-hotel/restaurants-and-bars/number-o"
  },
  {
    "address": "13-15 West St., Strand and Covent Garden WC2H 9NE",
    "country": "gb",
    "cuisine": "French",
    "latitude": "51.51307",
    "longitude": "-0.12849",
    "name": "L'Atelier de Jo\u00ebl Robuchon",
    "neighborhood": "9NE",
    "num_star": 1,
    "price_range": "From \u00a345 to \u00a3117",
    "url": "https://www.viamichelin.co.uk/web/Restaurant/Strand_and_Covent_Garden-WC2H_9NE-L_Atelier_de_Joel_Robuchon-32sfi3i",
    "website": "http://www.joelrobuchon.co.uk"
  },
  {
    "address": "Russel St, Bath BA1 2QF",
    "country": "gb",
    "cuisine": "Modern cuisine",
    "latitude": "51.38707",
    "longitude": "-2.3627",
    "name": "Olive Tree",
    "neighborhood": "2QF",
    "num_star": 1,
    "price_range": "From \u00a348 to \u00a382",
    "url": "https://www.viamichelin.co.uk/web/Restaurant/Bath-BA1_2QF-Olive_Tree-32uidd5",
    "website": "http://www.olivetreebath.co.uk"
  },
  {
    "address": "Main St, Murcott OX5 2RE",
    "country": "gb",
    "cuisine": "Traditional British",
    "latitude": "51.83618",
    "longitude": "-1.1499",
    "name": "Nut Tree",
    "neighborhood": "2RE",
    "num_star": 1,
    "price_range": "From \u00a340 to \u00a364",
    "url": "https://www.viamichelin.co.uk/web/Restaurant/Murcott-OX5_2RE-Nut_Tree-338dnn6",
    "website": "http://www.nuttreeinn.co.uk/home.html"
  },
  {
    "address": "Knowstone, Knowstone EX36 4RY",
    "country": "gb",
    "cuisine": "Classic French",
    "latitude": "50.99547",
    "longitude": "-3.67163",
    "name": "Masons Arms",
    "neighborhood": "4RY",
    "num_star": 1,
    "price_range": "From \u00a325 to \u00a353",
    "url": "https://www.viamichelin.co.uk/web/Restaurant/Knowstone-EX36_4RY-Masons_Arms-33d10rb",
    "website": "http://www.masonsarmsdevon.co.uk/"
  },
  {
    "address": "Tyddyn Llan, Corwen LL21 OST",
    "country": "gb",
    "cuisine": "Classic cuisine",
    "latitude": "52.92405",
    "longitude": "-3.44329",
    "name": "Tyddyn Llan",
    "neighborhood": "OST",
    "num_star": 1,
    "price_range": "From \u00a338 to \u00a370",
    "url": "https://www.viamichelin.co.uk/web/Restaurant/Corwen-LL21_OST-Tyddyn_Llan-33lchar",
    "website": "http://www.tyddynllan.co.uk"
  },
  {
    "address": "Whitebrook, Whitebrook NP25 4TX",
    "country": "gb",
    "cuisine": "Modern British",
    "latitude": "51.759697",
    "longitude": "-2.686909",
    "name": "The Whitebrook",
    "neighborhood": "4TX",
    "num_star": 1,
    "price_range": "From \u00a339 to \u00a382",
    "url": "https://www.viamichelin.co.uk/web/Restaurant/Whitebrook-NP25_4TX-The_Whitebrook-33lmstn",
    "website": "http://www.thewhitebrook.co.uk"
  },
  {
    "address": "Chagford, Chagford TQ13 8HH",
    "country": "gb",
    "cuisine": "Modern cuisine",
    "latitude": "50.67658",
    "longitude": "-3.87354",
    "name": "Gidleigh Park",
    "neighborhood": "8HH",
    "num_star": 1,
    "price_range": "From \u00a365 to \u00a3125",
    "url": "https://www.viamichelin.co.uk/web/Restaurant/Chagford-TQ13_8HH-Gidleigh_Park-33qpo6j",
    "website": "http://www.gidleigh.co.uk"
  },
  {
    "address": "Crook Rd, Bowness-on-Windermere LA23 3NE",
    "country": "gb",
    "cuisine": "Modern cuisine",
    "latitude": "54.35013",
    "longitude": "-2.91172",
    "name": "HRiSHi",
    "neighborhood": "3NE",
    "num_star": 1,
    "price_range": "From \u00a370 to \u00a390",
    "url": "https://www.viamichelin.co.uk/web/Restaurant/Bowness_on_Windermere-LA23_3NE-HRiSHi-3446jzr",
    "website": "http://https://thegilpin.co.uk/eat-and-drink/hrishi/"
  },
  {
    "address": "55 Cornwall St, Birmingham B3 2DH",
    "country": "gb",
    "cuisine": "Modern cuisine",
    "latitude": "52.48268",
    "longitude": "-1.9018",
    "name": "Purnell's",
    "neighborhood": "2DH",
    "num_star": 1,
    "price_range": "From \u00a339 to \u00a390",
    "url": "https://www.viamichelin.co.uk/web/Restaurant/Birmingham-B3_2DH-Purnell_s-34ef7n9",
    "website": "http://www.purnellsrestaurant.com"
  },
  {
    "address": "34 Portman St, Regent's Park and Marylebone W1H 7BY",
    "country": "gb",
    "cuisine": "Creative",
    "latitude": "51.51488",
    "longitude": "-0.15664",
    "name": "Texture",
    "neighborhood": "7BY",
    "num_star": 1,
    "price_range": "From \u00a329 to \u00a395",
    "url": "https://www.viamichelin.co.uk/web/Restaurant/Regent_s_Park_and_Marylebone-W1H_7BY-Texture-34g0lea",
    "website": "http://texture-restaurant.co.uk/"
  },
  {
    "address": "7-8 Park Pl, St James's SW1A 1LS",
    "country": "gb",
    "cuisine": "Modern cuisine",
    "latitude": "51.50623",
    "longitude": "-0.13998",
    "name": "Seven Park Place",
    "neighborhood": "1LS",
    "num_star": 1,
    "price_range": "From \u00a328 to \u00a395",
    "url": "https://www.viamichelin.co.uk/web/Restaurant/St_James_s-SW1A_1LS-Seven_Park_Place-34nvv90",
    "website": "http://www.stjameshotelandclub.com/michelin-star-chef-william-drabble"
  },
  {
    "address": "11-13 Abingdon Rd, Kensington W8 6AH",
    "country": "gb",
    "cuisine": "Modern cuisine",
    "latitude": "51.49918",
    "longitude": "-0.19692",
    "name": "Kitchen W8",
    "neighborhood": "6AH",
    "num_star": 1,
    "price_range": "From \u00a328 to \u00a354",
    "url": "https://www.viamichelin.co.uk/web/Restaurant/Kensington-W8_6AH-Kitchen_W8-34z1fxn",
    "website": "http://www.kitchenw8.com"
  },
  {
    "address": "1 Kinnerton St, Belgravia SW1X 8EA",
    "country": "gb",
    "cuisine": "French",
    "latitude": "51.49951",
    "longitude": "-0.15662",
    "name": "P\u00e9trus",
    "neighborhood": "8EA",
    "num_star": 1,
    "price_range": "From \u00a345 to \u00a3105",
    "url": "https://www.viamichelin.co.uk/web/Restaurant/Belgravia-SW1X_8EA-Petrus-353fdrd",
    "website": "http://https://www.gordonramsayrestaurants.com/petrus/"
  },
  {
    "address": "Blacknest Rd, Ascot SL5 7SE",
    "country": "gb",
    "cuisine": "Modern cuisine",
    "latitude": "51.40463",
    "longitude": "-0.616715",
    "name": "Coworth Park",
    "neighborhood": "7SE",
    "num_star": 1,
    "price_range": "From \u00a335 to \u00a380",
    "url": "https://www.viamichelin.co.uk/web/Restaurant/Ascot-SL5_7SE-Coworth_Park-355ye86",
    "website": "http://www.coworthpark.com"
  },
  {
    "address": "17 Bruton St, Mayfair W1J 6QB",
    "country": "gb",
    "cuisine": "Chinese",
    "latitude": "51.51037",
    "longitude": "-0.14475",
    "name": "Hakkasan Mayfair",
    "neighborhood": "6QB",
    "num_star": 1,
    "price_range": "From \u00a338 to \u00a3120",
    "url": "https://www.viamichelin.co.uk/web/Restaurant/Mayfair-W1J_6QB-Hakkasan_Mayfair-7jwerf0",
    "website": "http://www.hakkasan.com"
  },
  {
    "address": "5-7 Blandford St, Marylebone W1U 3DB",
    "country": "gb",
    "cuisine": "Creative British",
    "latitude": "51.518314",
    "longitude": "-0.15208746",
    "name": "Roganic",
    "neighborhood": "3DB",
    "num_star": 1,
    "price_range": "From \u00a335 to \u00a395",
    "url": "https://www.viamichelin.co.uk/web/Restaurant/Marylebone-W1U_3DB-Roganic-7k1sjc0",
    "website": "http://https://www.roganic.uk"
  },
  {
    "address": "1 Oxford St, Belfast BT1 3LA",
    "country": "gb",
    "cuisine": "Modern British",
    "latitude": "54.59891",
    "longitude": "-5.92198",
    "name": "OX",
    "neighborhood": "3LA",
    "num_star": 1,
    "price_range": "From \u00a322 to \u00a355",
    "url": "https://www.viamichelin.co.uk/web/Restaurant/Belfast-BT1_3LA-OX-8zdyt7y3",
    "website": "http://www.oxbelfast.com"
  },
  {
    "address": "1 Middle St, Port Isaac PL29 3RH",
    "country": "gb",
    "cuisine": "Seafood",
    "latitude": "50.59206",
    "longitude": "-4.832",
    "name": "Outlaw's Fish Kitchen",
    "neighborhood": "3RH",
    "num_star": 1,
    "price_range": "From \u00a325 to \u00a336",
    "url": "https://www.viamichelin.co.uk/web/Restaurant/Port_Isaac-PL29_3RH-Outlaw_s_Fish_Kitchen-8ze122e1",
    "website": "http://www.nathan-outlaw.com"
  },
  {
    "address": "Stonehurst Farm, 141 Loughborough Rd, Mountsorrel LE12 7AR",
    "country": "gb",
    "cuisine": "Modern cuisine",
    "latitude": "52.73295",
    "longitude": "-1.145851",
    "name": "John's House",
    "neighborhood": "7AR",
    "num_star": 1,
    "price_range": "From \u00a330 to \u00a379",
    "url": "https://www.viamichelin.co.uk/web/Restaurant/Mountsorrel-LE12_7AR-John_s_House-rbhonj64",
    "website": "http://www.johnshouse.co.uk/"
  },
  {
    "address": "101 New Bond St, Mayfair W1S 1SR",
    "country": "gb",
    "cuisine": "Modern cuisine",
    "latitude": "51.51102",
    "longitude": "-0.143145",
    "name": "Bonhams",
    "neighborhood": "1SR",
    "num_star": 1,
    "price_range": "From \u00a342 to \u00a370",
    "url": "https://www.viamichelin.co.uk/web/Restaurant/Mayfair-W1S_1SR-Bonhams-rbi0vc4v",
    "website": "http://www.bonhamsrestaurant.com"
  },
  {
    "address": "Hyde Park Corner, Belgravia SW1X 7TA",
    "country": "gb",
    "cuisine": "Creative French",
    "latitude": "51.502422",
    "longitude": "-0.15226167",
    "name": "C\u00e9leste",
    "neighborhood": "7TA",
    "num_star": 1,
    "price_range": "From \u00a339 to \u00a3100",
    "url": "https://www.viamichelin.co.uk/web/Restaurant/Belgravia-SW1X_7TA-Celeste-vsax6ubo",
    "website": "http://https://www.oetkercollection.com/destinations/the-lanesborough/restaurants-bars/restaurants/celeste/"
  },
  {
    "address": "301-303 Chiswick High Rd, Chiswick W4 4HH",
    "country": "gb",
    "cuisine": "Modern cuisine",
    "latitude": "51.49273",
    "longitude": "-0.2683",
    "name": "Hedone",
    "neighborhood": "4HH",
    "num_star": 1,
    "price_range": "From \u00a365 to \u00a395",
    "url": "https://www.viamichelin.co.uk/web/Restaurant/Chiswick-W4_4HH-Hedone-2v6fke9k",
    "website": "http://www.hedonerestaurant.com"
  },
  {
    "address": "70 Wilton Rd, Victoria SW1V 1DE",
    "country": "gb",
    "cuisine": "Chinese",
    "latitude": "51.49318",
    "longitude": "-0.14128001",
    "name": "A. Wong",
    "neighborhood": "1DE",
    "num_star": 1,
    "price_range": "From \u00a324 to \u00a354",
    "url": "https://www.viamichelin.co.uk/web/Restaurant/Victoria-SW1V_1DE-A_Wong-2v6w3w4t",
    "website": "http://www.awong.co.uk"
  },
  {
    "address": "7-11 Don St, Saint Helier JE2 4TQ",
    "country": "gb",
    "cuisine": "Modern cuisine",
    "latitude": "49.18488",
    "longitude": "-2.1057",
    "name": "Samphire",
    "neighborhood": "4TQ",
    "num_star": 1,
    "price_range": "From \u00a329 to \u00a367",
    "url": "https://www.viamichelin.co.uk/web/Restaurant/Saint_Helier-JE2_4TQ-Samphire-2v6wttr8",
    "website": "http://www.samphire.je"
  },
  {
    "address": "8-9 Blacklands Terr, Chelsea SW3 2SP",
    "country": "gb",
    "cuisine": "Modern cuisine",
    "latitude": "51.49168",
    "longitude": "-0.16124",
    "name": "Five Fields",
    "neighborhood": "2SP",
    "num_star": 1,
    "price_range": "From \u00a365 to \u00a390",
    "url": "https://www.viamichelin.co.uk/web/Restaurant/Chelsea-SW3_2SP-Five_Fields-2v6z1qy7",
    "website": "http://www.fivefieldsrestaurant.com"
  },
  {
    "address": "380 Old St, Shoreditch EC1V 9LT",
    "country": "gb",
    "cuisine": "Modern cuisine",
    "latitude": "51.52711",
    "longitude": "-0.07927",
    "name": "The Clove Club",
    "neighborhood": "9LT",
    "num_star": 1,
    "price_range": "From \u00a375 to \u00a3110",
    "url": "https://www.viamichelin.co.uk/web/Restaurant/Shoreditch-EC1V_9LT-The_Clove_Club-2v6zc5qu",
    "website": "http://www.thecloveclub.com"
  },
  {
    "address": "Brook St, Mayfair W1K 4HR",
    "country": "gb",
    "cuisine": "Creative British",
    "latitude": "51.51264",
    "longitude": "-0.14797002",
    "name": "Fera at Claridge's",
    "neighborhood": "4HR",
    "num_star": 1,
    "price_range": "From \u00a342 to \u00a385",
    "url": "https://www.viamichelin.co.uk/web/Restaurant/Mayfair-W1K_4HR-Fera_at_Claridge_s-32foc9v",
    "website": "http://www.feraatclaridges.co.uk"
  },
  {
    "address": "6-10 Bruton St., Mayfair W1J 6PU",
    "country": "gb",
    "cuisine": "Creative French",
    "latitude": "51.51069",
    "longitude": "-0.14401",
    "name": "The Square",
    "neighborhood": "6PU",
    "num_star": 1,
    "price_range": "From \u00a337 to \u00a385",
    "url": "https://www.viamichelin.co.uk/web/Restaurant/Mayfair-W1J_6PU-The_Square-32g2d1d",
    "website": "http://www.squarerestaurant.com"
  },
  {
    "address": "Victory House, 99 Regent St, Mayfair W1B 4RS",
    "country": "gb",
    "cuisine": "Indian",
    "latitude": "51.51008",
    "longitude": "-0.13809",
    "name": "Veeraswamy",
    "neighborhood": "4RS",
    "num_star": 1,
    "price_range": "From \u00a326 to \u00a376",
    "url": "https://www.viamichelin.co.uk/web/Restaurant/Mayfair-W1B_4RS-Veeraswamy-32gj9rq",
    "website": "http://www.veeraswamy.com"
  },
  {
    "address": "Halkin Arcade, 19 Motcomb St, Belgravia SW1X 8JT",
    "country": "gb",
    "cuisine": "Indian",
    "latitude": "51.49912",
    "longitude": "-0.15731",
    "name": "Amaya",
    "neighborhood": "8JT",
    "num_star": 1,
    "price_range": "From \u00a326 to \u00a385",
    "url": "https://www.viamichelin.co.uk/web/Restaurant/Belgravia-SW1X_8JT-Amaya-32i2d44",
    "website": "http://www.amaya.biz"
  },
  {
    "address": "8 Seymour St., Regent's Park and Marylebone W1H 7JZ",
    "country": "gb",
    "cuisine": "Italian",
    "latitude": "51.51514",
    "longitude": "-0.15675001",
    "name": "Locanda Locatelli",
    "neighborhood": "7JZ",
    "num_star": 1,
    "price_range": "From \u00a349 to \u00a374",
    "url": "https://www.viamichelin.co.uk/web/Restaurant/Regent_s_Park_and_Marylebone-W1H_7JZ-Locanda_Locatelli-32irqwh",
    "website": "http://www.locandalocatelli.com"
  },
  {
    "address": "57 West Smithfield, City of London EC1A 9DS",
    "country": "gb",
    "cuisine": "French",
    "latitude": "51.51857",
    "longitude": "-0.10031",
    "name": "Club Gascon",
    "neighborhood": "9DS",
    "num_star": 1,
    "price_range": "From \u00a340 to \u00a384",
    "url": "https://www.viamichelin.co.uk/web/Restaurant/City_of_London-EC1A_9DS-Club_Gascon-32jj8il",
    "website": "http://www.clubgascon.com"
  },
  {
    "address": "20 Highfield Rd, Edgbaston, Birmingham B15 3DU",
    "country": "gb",
    "cuisine": "Modern cuisine",
    "latitude": "52.46925",
    "longitude": "-1.9238801",
    "name": "Simpsons",
    "neighborhood": "3DU",
    "num_star": 1,
    "price_range": "From \u00a345 to \u00a375",
    "url": "https://www.viamichelin.co.uk/web/Restaurant/Birmingham-B15_3DU-Simpsons-32lo9mt",
    "website": "http://www.simpsonsrestaurant.co.uk"
  },
  {
    "address": "54 The Shore, Leith EH6 6RA",
    "country": "gb",
    "cuisine": "Modern cuisine",
    "latitude": "55.97552",
    "longitude": "-3.17019",
    "name": "Martin Wishart",
    "neighborhood": "6RA",
    "num_star": 1,
    "price_range": "From \u00a332 to \u00a395",
    "url": "https://www.viamichelin.co.uk/web/Restaurant/Leith-EH6_6RA-Martin_Wishart-32lse0t",
    "website": "http://www.martin-wishart.co.uk"
  },
  {
    "address": "Thames Wharf, Rainville Rd, Hammersmith W6 9HA",
    "country": "gb",
    "cuisine": "Italian",
    "latitude": "51.48395",
    "longitude": "-0.22423",
    "name": "River Caf\u00e9",
    "neighborhood": "9HA",
    "num_star": 1,
    "price_range": "From \u00a364 to \u00a370",
    "url": "https://www.viamichelin.co.uk/web/Restaurant/Hammersmith-W6_9HA-River_Cafe-32oo3ut",
    "website": "http://www.rivercafe.co.uk"
  },
  {
    "address": "65 South Audley St, Mayfair W1K 2QU",
    "country": "gb",
    "cuisine": "Chinese",
    "latitude": "51.50871",
    "longitude": "-0.15162",
    "name": "Kai",
    "neighborhood": "2QU",
    "num_star": 1,
    "price_range": "From \u00a351 to \u00a3199",
    "url": "https://www.viamichelin.co.uk/web/Restaurant/Mayfair-W1K_2QU-Kai-32p2bd3",
    "website": "http://www.kaimayfair.co.uk"
  },
  {
    "address": "2 Bellevue Rd, Wandsworth SW17 7EG",
    "country": "gb",
    "cuisine": "French",
    "latitude": "51.44607",
    "longitude": "-0.16553",
    "name": "Chez Bruce",
    "neighborhood": "7EG",
    "num_star": 1,
    "price_range": "From \u00a338 to \u00a358",
    "url": "https://www.viamichelin.co.uk/web/Restaurant/Wandsworth-SW17_7EG-Chez_Bruce-32phfvl",
    "website": "http://www.chezbruce.co.uk"
  },
  {
    "address": "3-7 Devonshire Rd, Chiswick W4 2EU",
    "country": "gb",
    "cuisine": "Modern British",
    "latitude": "51.49222",
    "longitude": "-0.25619",
    "name": "La Trompette",
    "neighborhood": "2EU",
    "num_star": 1,
    "price_range": "From \u00a335 to \u00a355",
    "url": "https://www.viamichelin.co.uk/web/Restaurant/Chiswick-W4_2EU-La_Trompette-32pkciu",
    "website": "http://www.latrompette.co.uk"
  },
  {
    "address": "14 Station Par., Kew TW9 3PZ",
    "country": "gb",
    "cuisine": "Modern cuisine",
    "latitude": "51.4771",
    "longitude": "-0.28574",
    "name": "The Glasshouse",
    "neighborhood": "3PZ",
    "num_star": 1,
    "price_range": "From \u00a338 to \u00a358",
    "url": "https://www.viamichelin.co.uk/web/Restaurant/Kew-TW9_3PZ-The_Glasshouse-32pvpnu",
    "website": "http://www.glasshouserestaurant.co.uk"
  },
  {
    "address": "26 St John St, Clerkenwell EC1M 4AY",
    "country": "gb",
    "cuisine": "Traditional British",
    "latitude": "51.52064",
    "longitude": "-0.10132999",
    "name": "St John",
    "neighborhood": "4AY",
    "num_star": 1,
    "price_range": "From \u00a326 to \u00a363",
    "url": "https://www.viamichelin.co.uk/web/Restaurant/Clerkenwell-EC1M_4AY-St_John-32qc7ti",
    "website": "http://www.stjohnrestaurant.com"
  },
  {
    "address": "78 Commercial Quay, Leith EH6 6LX",
    "country": "gb",
    "cuisine": "Modern cuisine",
    "latitude": "55.976967",
    "longitude": "-3.172842",
    "name": "Kitchin",
    "neighborhood": "6LX",
    "num_star": 1,
    "price_range": "From \u00a333 to \u00a375",
    "url": "https://www.viamichelin.co.uk/web/Restaurant/Leith-EH6_6LX-Kitchin-32t61y4",
    "website": "http://www.thekitchin.com"
  },
  {
    "address": "London Rd, Bagshot GU19 5EU",
    "country": "gb",
    "cuisine": "Modern cuisine",
    "latitude": "51.35764",
    "longitude": "-0.7086128",
    "name": "Matt Worswick at The Latymer",
    "neighborhood": "5EU",
    "num_star": 1,
    "price_range": "From \u00a369 to \u00a395",
    "url": "https://www.viamichelin.co.uk/web/Restaurant/Bagshot-GU19_5EU-Matt_Worswick_at_The_Latymer-32u4e2o",
    "website": "http://www.exclusivehotels.co.uk"
  },
  {
    "address": "Calver Rd, Baslow DE45 1RR",
    "country": "gb",
    "cuisine": "Modern cuisine",
    "latitude": "53.25055",
    "longitude": "-1.6269798",
    "name": "Fischer's at Baslow Hall",
    "neighborhood": "1RR",
    "num_star": 1,
    "price_range": "From \u00a334 to \u00a379",
    "url": "https://www.viamichelin.co.uk/web/Restaurant/Baslow-DE45_1RR-Fischer_s_at_Baslow_Hall-32ue5sw",
    "website": "http://www.fischers-baslowhall.co.uk"
  },
  {
    "address": "West End, South Dalton HU17 7PN",
    "country": "gb",
    "cuisine": "Modern British",
    "latitude": "53.8955",
    "longitude": "-0.53301",
    "name": "Pipe and Glass",
    "neighborhood": "7PN",
    "num_star": 1,
    "price_range": "From \u00a327 to \u00a360",
    "url": "https://www.viamichelin.co.uk/web/Restaurant/South_Dalton-HU17_7PN-Pipe_and_Glass-32ut3hf",
    "website": "http://www.pipeandglass.co.uk"
  },
  {
    "address": "28 High St, Biddenden TN27 8AH",
    "country": "gb",
    "cuisine": "Modern British",
    "latitude": "51.11521",
    "longitude": "0.64215",
    "name": "West House",
    "neighborhood": "8AH",
    "num_star": 1,
    "price_range": "From \u00a329 to \u00a365",
    "url": "https://www.viamichelin.co.uk/web/Restaurant/Biddenden-TN27_8AH-West_House-32uvn5o",
    "website": "http://www.thewesthouserestaurant.co.uk"
  },
  {
    "address": "11 Rose Mount, Oxton, Birkenhead CH43 5SG",
    "country": "gb",
    "cuisine": "Creative",
    "latitude": "53.38183",
    "longitude": "-3.04307",
    "name": "Fraiche",
    "neighborhood": "5SG",
    "num_star": 1,
    "price_range": "From \u00a388 to \u00a388",
    "url": "https://www.viamichelin.co.uk/web/Restaurant/Birkenhead-CH43_5SG-Fraiche-32v1o40",
    "website": "http://www.restaurantfraiche.com"
  },
  {
    "address": "Northcote Rd, Lango BB6 8BE",
    "country": "gb",
    "cuisine": "Modern British",
    "latitude": "53.80933",
    "longitude": "-2.4476",
    "name": "Northcote",
    "neighborhood": "8BE",
    "num_star": 1,
    "price_range": "From \u00a335 to \u00a373",
    "url": "https://www.viamichelin.co.uk/web/Restaurant/Lango-BB6_8BE-Northcote-32v5xj9",
    "website": "http://www.northcote.com"
  },
  {
    "address": "High St, Bray SL6 2AB",
    "country": "gb",
    "cuisine": "Traditional British",
    "latitude": "51.51265",
    "longitude": "-0.69641",
    "name": "Hinds Head",
    "neighborhood": "2AB",
    "num_star": 1,
    "price_range": "From \u00a325 to \u00a372",
    "url": "https://www.viamichelin.co.uk/web/Restaurant/Bray-SL6_2AB-Hinds_Head-32vqeai",
    "website": "http://www.hindsheadbray.com"
  },
  {
    "address": "The General, Lower Guinea St, Bristol BS1 6FU",
    "country": "gb",
    "cuisine": "Creative",
    "latitude": "51.447254",
    "longitude": "-2.5940728",
    "name": "Casamia",
    "neighborhood": "6FU",
    "num_star": 1,
    "price_range": "From \u00a398 to \u00a398",
    "url": "https://www.viamichelin.co.uk/web/Restaurant/Bristol-BS1_6FU-Casamia-32wc11z",
    "website": "http://www.casamiarestaurant.co.uk"
  },
  {
    "address": "1 Chandos Rd, Bristol BS6 6PG",
    "country": "gb",
    "cuisine": "Modern British",
    "latitude": "51.46737",
    "longitude": "-2.6069899",
    "name": "wilks",
    "neighborhood": "6PG",
    "num_star": 1,
    "price_range": "From \u00a329 to \u00a362",
    "url": "https://www.viamichelin.co.uk/web/Restaurant/Bristol-BS6_6PG-wilks-32wf36u",
    "website": "http://www.wilksrestaurant.co.uk"
  },
  {
    "address": "Green St, St Helier JE2 4UH",
    "country": "gb",
    "cuisine": "Modern cuisine",
    "latitude": "49.181225",
    "longitude": "-2.102417",
    "name": "Bohemia",
    "neighborhood": "4UH",
    "num_star": 1,
    "price_range": "From \u00a330 to \u00a365",
    "url": "https://www.viamichelin.co.uk/web/Restaurant/St_Helier-JE2_4UH-Bohemia-32y7r23",
    "website": "http://www.bohemiajersey.com"
  },
  {
    "address": "24-28 Suffolk Rd, Cheltenham GL50 2AQ",
    "country": "gb",
    "cuisine": "Modern cuisine",
    "latitude": "51.89146",
    "longitude": "-2.07912",
    "name": "Le Champignon Sauvage",
    "neighborhood": "2AQ",
    "num_star": 1,
    "price_range": "From \u00a335 to \u00a370",
    "url": "https://www.viamichelin.co.uk/web/Restaurant/Cheltenham-GL50_2AQ-Le_Champignon_Sauvage-32ycmze",
    "website": "http://www.lechampignonsauvage.co.uk"
  },
  {
    "address": "Eastgate, Chester CH1 1LT",
    "country": "gb",
    "cuisine": "Modern cuisine",
    "latitude": "53.19064",
    "longitude": "-2.88913",
    "name": "Simon Radley at Chester Grosvenor",
    "neighborhood": "1LT",
    "num_star": 1,
    "price_range": "From \u00a375 to \u00a399",
    "url": "https://www.viamichelin.co.uk/web/Restaurant/Chester-CH1_1LT-Simon_Radley_at_Chester_Grosvenor-32yjgxv",
    "website": "http://www.chestergrosvenor.com"
  },
  {
    "address": "The General, 3A Lower Guinea St, Bristol BS1 6FU",
    "country": "gb",
    "cuisine": "Spanish",
    "latitude": "51.44647",
    "longitude": "-2.59358",
    "name": "Paco Tapas",
    "neighborhood": "6FU",
    "num_star": 1,
    "price_range": "From \u00a320 to \u00a350",
    "url": "https://www.viamichelin.co.uk/web/Restaurant/Bristol-BS1_6FU-Paco_Tapas-12isdd9wj",
    "website": "http://www.pacotapas.co.uk"
  },
  {
    "address": "8 Church St, Stratford-upon-Avon CV37 6HB",
    "country": "gb",
    "cuisine": "Modern British",
    "latitude": "52.18963",
    "longitude": "-1.7092043",
    "name": "Salt",
    "neighborhood": "6HB",
    "num_star": 1,
    "price_range": "From \u00a324 to \u00a365",
    "url": "https://www.viamichelin.co.uk/web/Restaurant/Stratford_upon_Avon-CV37_6HB-Salt-12isiputw",
    "website": "http://www.salt-restaurant.co.uk"
  },
  {
    "address": "1 St. James's Market, Saint James's SW1Y 4AH",
    "country": "gb",
    "cuisine": "Creative",
    "latitude": "51.509212",
    "longitude": "-0.1334389",
    "name": "Ikoyi",
    "neighborhood": "4AH",
    "num_star": 1,
    "price_range": "From \u00a325 to \u00a354",
    "url": "https://www.viamichelin.co.uk/web/Restaurant/Saint_James_s-SW1Y_4AH-Ikoyi-14ovqih0f",
    "website": "http://www.ikoyilondon.com"
  },
  {
    "address": "Bagnor, Newbury RG20 8AQ",
    "country": "gb",
    "cuisine": "Classic cuisine",
    "latitude": "51.420887",
    "longitude": "-1.3493549",
    "name": "Blackbird",
    "neighborhood": "8AQ",
    "num_star": 1,
    "price_range": "From \u00a319 to \u00a353",
    "url": "https://www.viamichelin.co.uk/web/Restaurant/Newbury-RG20_8AQ-Blackbird-14ovry8bp",
    "website": "http://www.theblackbird.co.uk"
  },
  {
    "address": "18 Phipp St, Shoreditch EC2A 4NU",
    "country": "gb",
    "cuisine": "Modern British",
    "latitude": "51.524086",
    "longitude": "-0.08153365",
    "name": "Leroy",
    "neighborhood": "4NU",
    "num_star": 1,
    "price_range": "From \u00a320 to \u00a348",
    "url": "https://www.viamichelin.co.uk/web/Restaurant/Shoreditch-EC2A_4NU-Leroy-14ovs4aw9",
    "website": "http://www.leroyshoreditch.com"
  },
  {
    "address": "King St, Fordwich CT2 0DB",
    "country": "gb",
    "cuisine": "Modern cuisine",
    "latitude": "51.295284",
    "longitude": "1.1261871",
    "name": "Fordwich Arms",
    "neighborhood": "0DB",
    "num_star": 1,
    "price_range": "From \u00a335 to \u00a352",
    "url": "https://www.viamichelin.co.uk/web/Restaurant/Fordwich-CT2_0DB-Fordwich_Arms-14ovshww3",
    "website": "http://www.fordwicharms.co.uk"
  },
  {
    "address": "85 Piccadilly, Mayfair W1J 7NB",
    "country": "gb",
    "cuisine": "Modern British",
    "latitude": "51.506077",
    "longitude": "-0.14428897",
    "name": "Hide",
    "neighborhood": "7NB",
    "num_star": 1,
    "price_range": "From \u00a342 to \u00a395",
    "url": "https://www.viamichelin.co.uk/web/Restaurant/Mayfair-W1J_7NB-Hide-14ovsj48x",
    "website": "http://www.hide.co.uk"
  },
  {
    "address": "4 Redchurch St (1st Floor), Shoreditch E1 6JL",
    "country": "gb",
    "cuisine": "Traditional British",
    "latitude": "51.52427",
    "longitude": "-0.07676807",
    "name": "Brat",
    "neighborhood": "6JL",
    "num_star": 1,
    "price_range": "From \u00a323 to \u00a340",
    "url": "https://www.viamichelin.co.uk/web/Restaurant/Shoreditch-E1_6JL-Brat-14ovsrv9r",
    "website": "http://www.bratrestaurant.com"
  },
  {
    "address": "35-37 Heddon St, Mayfair W1B 4BR",
    "country": "gb",
    "cuisine": "Spanish",
    "latitude": "51.511368",
    "longitude": "-0.1396773",
    "name": "Sabor",
    "neighborhood": "4BR",
    "num_star": 1,
    "price_range": "From \u00a324 to \u00a340",
    "url": "https://www.viamichelin.co.uk/web/Restaurant/Mayfair-W1B_4BR-Sabor-14ovtgfng",
    "website": "http://www.saborrestaurants.co.uk"
  },
  {
    "address": "Trinity House, 1a High St, Menai Bridge LL59 5EE",
    "country": "gb",
    "cuisine": "Modern cuisine",
    "latitude": "53.225925",
    "longitude": "-4.163006",
    "name": "Sosban & The Old Butchers",
    "neighborhood": "5EE",
    "num_star": 1,
    "price_range": "From \u00a380 to \u00a380",
    "url": "https://www.viamichelin.co.uk/web/Restaurant/Menai_Bridge-LL59_5EE-Sosban_The_Old_Butchers-14p1wtu2m",
    "website": "http://www.sosbanandtheoldbutchers.com"
  },
  {
    "address": "New Oxford House, 16 Waterloo St, Birmingham B2 5UG",
    "country": "gb",
    "cuisine": "Modern cuisine",
    "latitude": "52.47964",
    "longitude": "-1.900286",
    "name": "Adam's",
    "neighborhood": "5UG",
    "num_star": 1,
    "price_range": "From \u00a340 to \u00a365",
    "url": "https://www.viamichelin.co.uk/web/Restaurant/Birmingham-B2_5UG-Adam_s-14p1x04kc",
    "website": "http://www.adamsrestaurant.co.uk"
  },
  {
    "address": "The Street, Little Dunmow CM6 3HT",
    "country": "gb",
    "cuisine": "Modern British",
    "latitude": "51.86747",
    "longitude": "0.404134",
    "name": "Tim Allen's Flitch of Bacon",
    "neighborhood": "3HT",
    "num_star": 1,
    "price_range": "From \u00a325 to \u00a361",
    "url": "https://www.viamichelin.co.uk/web/Restaurant/Little_Dunmow-CM6_3HT-Tim_Allen_s_Flitch_of_Bacon-14p2alin4",
    "website": "http://www.flitchofbacon.co.uk"
  },
  {
    "address": "High St, Harome YO62 5JE",
    "country": "gb",
    "cuisine": "Modern British",
    "latitude": "54.23101",
    "longitude": "-1.01023",
    "name": "Star Inn at Harome",
    "neighborhood": "5JE",
    "num_star": 1,
    "price_range": "From \u00a325 to \u00a360",
    "url": "https://www.viamichelin.co.uk/web/Restaurant/Harome-YO62_5JE-Star_Inn_at_Harome-332s9rq",
    "website": "http://www.thestaratharome.co.uk"
  },
  {
    "address": "4 The Polygon, Clapham Common SW4 0JG",
    "country": "gb",
    "cuisine": "Modern cuisine",
    "latitude": "51.46336",
    "longitude": "-0.14148003",
    "name": "Trinity",
    "neighborhood": "0JG",
    "num_star": 1,
    "price_range": "From \u00a340 to \u00a368",
    "url": "https://www.viamichelin.co.uk/web/Restaurant/Clapham_Common-SW4_0JG-Trinity-335yd18",
    "website": "http://www.trinityrestaurant.co.uk"
  },
  {
    "address": "26-27 Dean St, Soho W1D 3LL",
    "country": "gb",
    "cuisine": "Spanish",
    "latitude": "51.51375",
    "longitude": "-0.1318",
    "name": "Barrafina",
    "neighborhood": "3LL",
    "num_star": 1,
    "price_range": "From \u00a320 to \u00a340",
    "url": "https://www.viamichelin.co.uk/web/Restaurant/Soho-W1D_3LL-Barrafina-336dxas",
    "website": "http://www.barrafina.co.uk"
  },
  {
    "address": "6 Middle St, Padstow PL28 8AP",
    "country": "gb",
    "cuisine": "Modern cuisine",
    "latitude": "50.541534",
    "longitude": "-4.9398518",
    "name": "Paul Ainsworth at No.6",
    "neighborhood": "8AP",
    "num_star": 1,
    "price_range": "From \u00a329 to \u00a376",
    "url": "https://www.viamichelin.co.uk/web/Restaurant/Padstow-PL28_8AP-Paul_Ainsworth_at_No_6-339wsb9",
    "website": "http://www.paul-ainsworth.co.uk"
  },
  {
    "address": "Ramsgill-in-Nidderdale, Pateley Bridge HG3 5RL",
    "country": "gb",
    "cuisine": "Modern cuisine",
    "latitude": "54.13435",
    "longitude": "-1.8183095",
    "name": "Yorke Arms",
    "neighborhood": "5RL",
    "num_star": 1,
    "price_range": "From \u00a336 to \u00a3105",
    "url": "https://www.viamichelin.co.uk/web/Restaurant/Pateley_Bridge-HG3_5RL-Yorke_Arms-33a1gbq",
    "website": "http://www.yorke-arms.co.uk"
  },
  {
    "address": "Church Ln, Reading RG2 9BY",
    "country": "gb",
    "cuisine": "French",
    "latitude": "51.40833",
    "longitude": "-0.9542898",
    "name": "L'Ortolan",
    "neighborhood": "9BY",
    "num_star": 1,
    "price_range": "From \u00a330 to \u00a369",
    "url": "https://www.viamichelin.co.uk/web/Restaurant/Reading-RG2_9BY-L_Ortolan-33axbf0",
    "website": "http://www.lortolan.com"
  },
  {
    "address": "High St, Ripley GU23 6AQ",
    "country": "gb",
    "cuisine": "Modern cuisine",
    "latitude": "51.30044",
    "longitude": "-0.49287",
    "name": "Clock House",
    "neighborhood": "6AQ",
    "num_star": 1,
    "price_range": "From \u00a335 to \u00a375",
    "url": "https://www.viamichelin.co.uk/web/Restaurant/Ripley-GU23_6AQ-Clock_House-33b4cie",
    "website": "http://www.theclockhouserestaurant.co.uk"
  },
  {
    "address": "3-4 Beacon Terr, Torquay TQ1 2BH",
    "country": "gb",
    "cuisine": "Modern British",
    "latitude": "50.45853",
    "longitude": "-3.52438",
    "name": "Elephant",
    "neighborhood": "2BH",
    "num_star": 1,
    "price_range": "From \u00a322 to \u00a347",
    "url": "https://www.viamichelin.co.uk/web/Restaurant/Torquay-TQ1_2BH-Elephant-33eufo5",
    "website": "http://www.elephantrestaurant.co.uk"
  },
  {
    "address": "Faversham Rd, Seasalter CT5 4BP",
    "country": "gb",
    "cuisine": "Modern British",
    "latitude": "51.34392",
    "longitude": "0.95884997",
    "name": "The Sportsman",
    "neighborhood": "4BP",
    "num_star": 1,
    "price_range": "From \u00a340 to \u00a370",
    "url": "https://www.viamichelin.co.uk/web/Restaurant/Seasalter-CT5_4BP-The_Sportsman-33g6jia",
    "website": "http://www.thesportsmanseasalter.co.uk"
  },
  {
    "address": "1 Silver St, Winteringham DN15 9ND",
    "country": "gb",
    "cuisine": "Modern cuisine",
    "latitude": "53.68778",
    "longitude": "-0.59013",
    "name": "Winteringham Fields",
    "neighborhood": "9ND",
    "num_star": 1,
    "price_range": "From \u00a345 to \u00a389",
    "url": "https://www.viamichelin.co.uk/web/Restaurant/Winteringham-DN15_9ND-Winteringham_Fields-33gs3v2",
    "website": "http://www.winteringhamfields.co.uk"
  },
  {
    "address": "24 East Green, Anstruther KY10 3AA",
    "country": "gb",
    "cuisine": "Modern cuisine",
    "latitude": "56.222126",
    "longitude": "-2.696321",
    "name": "The Cellar",
    "neighborhood": "3AA",
    "num_star": 1,
    "price_range": "From \u00a335 to \u00a360",
    "url": "https://www.viamichelin.co.uk/web/Restaurant/Anstruther-KY10_3AA-The_Cellar-33hpbbz",
    "website": "http://www.thecellaranstruther.co.uk"
  },
  {
    "address": "Drumastle Mill Cottage, Dalry KA24 4LN",
    "country": "gb",
    "cuisine": "Classic cuisine",
    "latitude": "55.69474",
    "longitude": "-4.7425",
    "name": "Braidwoods",
    "neighborhood": "4LN",
    "num_star": 1,
    "price_range": "From \u00a332 to \u00a355",
    "url": "https://www.viamichelin.co.uk/web/Restaurant/Dalry-KA24_4LN-Braidwoods-33i2wxs",
    "website": "http://www.braidwoods.co.uk"
  },
  {
    "address": "Peat Inn KY15 5LH",
    "country": "gb",
    "cuisine": "Classic cuisine",
    "latitude": "56.27861",
    "longitude": "-2.8845797",
    "name": "The Peat Inn",
    "neighborhood": "5LH",
    "num_star": 1,
    "price_range": "From \u00a325 to \u00a364",
    "url": "https://www.viamichelin.co.uk/web/Restaurant/Peat_Inn-KY15_5LH-The_Peat_Inn-33jrqo3",
    "website": "http://www.thepeatinn.co.uk"
  },
  {
    "address": "1 Macleods Terr,, Stein IV55 8GA",
    "country": "gb",
    "cuisine": "Modern cuisine",
    "latitude": "57.51487",
    "longitude": "-6.57114",
    "name": "Loch Bay",
    "neighborhood": "8GA",
    "num_star": 1,
    "price_range": "From \u00a330 to \u00a370",
    "url": "https://www.viamichelin.co.uk/web/Restaurant/Stein-IV55_8GA-Loch_Bay-33k1zoe",
    "website": "http://www.lochbay-restaurant.co.uk"
  },
  {
    "address": "Colerne SN14 8AZ",
    "country": "gb",
    "cuisine": "Modern British",
    "latitude": "51.45502",
    "longitude": "-2.25941",
    "name": "Restaurant Hywel Jones by Lucknam Park",
    "neighborhood": "8AZ",
    "num_star": 1,
    "price_range": "From \u00a387 to \u00a3110",
    "url": "https://www.viamichelin.co.uk/web/Restaurant/Colerne-SN14_8AZ-Restaurant_Hywel_Jones_by_Lucknam_Park-33om4z5",
    "website": "http://www.lucknampark.co.uk"
  },
  {
    "address": "The Street, Morston NR25 7AA",
    "country": "gb",
    "cuisine": "Modern British",
    "latitude": "52.95473",
    "longitude": "0.98729",
    "name": "Morston Hall",
    "neighborhood": "7AA",
    "num_star": 1,
    "price_range": "From \u00a380 to \u00a380",
    "url": "https://www.viamichelin.co.uk/web/Restaurant/Morston-NR25_7AA-Morston_Hall-33p5l27",
    "website": "http://www.morstonhall.com"
  },
  {
    "address": "Castle Combe SN14 7HR",
    "country": "gb",
    "cuisine": "Modern British",
    "latitude": "51.49382",
    "longitude": "-2.23212",
    "name": "Bybrook",
    "neighborhood": "7HR",
    "num_star": 1,
    "price_range": "From \u00a375 to \u00a395",
    "url": "https://www.viamichelin.co.uk/web/Restaurant/Castle_Combe-SN14_7HR-Bybrook-33qmddj",
    "website": "http://www.exclusive.co.uk"
  },
  {
    "address": "Vowels Ln, East Grinstead RH19 4LJ",
    "country": "gb",
    "cuisine": "Modern British",
    "latitude": "51.08932",
    "longitude": "-0.05691",
    "name": "Gravetye Manor",
    "neighborhood": "4LJ",
    "num_star": 1,
    "price_range": "From \u00a340 to \u00a375",
    "url": "https://www.viamichelin.co.uk/web/Restaurant/East_Grinstead-RH19_4LJ-Gravetye_Manor-33t3udn",
    "website": "http://www.gravetyemanor.co.uk"
  },
  {
    "address": "Stroude Rd, Egham TW20 9UR",
    "country": "gb",
    "cuisine": "Modern cuisine",
    "latitude": "51.41759",
    "longitude": "-0.545847",
    "name": "Tudor Room",
    "neighborhood": "9UR",
    "num_star": 1,
    "price_range": "From \u00a339 to \u00a372",
    "url": "https://www.viamichelin.co.uk/web/Restaurant/Egham-TW20_9UR-Tudor_Room-33t75gt",
    "website": "http://www.greatfosters.co.uk"
  },
  {
    "address": "Easton Grey, Malmesbury SN16 0RB",
    "country": "gb",
    "cuisine": "Asian influences",
    "latitude": "51.58376",
    "longitude": "-2.14954",
    "name": "The Dining Room",
    "neighborhood": "0RB",
    "num_star": 1,
    "price_range": "From \u00a3120 to \u00a3120",
    "url": "https://www.viamichelin.co.uk/web/Restaurant/Malmesbury-SN16_0RB-The_Dining_Room-33xch9k",
    "website": "http://www.whatleymanor.com"
  },
  {
    "address": "Hambleton LE15 8TH",
    "country": "gb",
    "cuisine": "Classic cuisine",
    "latitude": "52.65737",
    "longitude": "-0.66812",
    "name": "Hambleton Hall",
    "neighborhood": "8TH",
    "num_star": 1,
    "price_range": "From \u00a338 to \u00a373",
    "url": "https://www.viamichelin.co.uk/web/Restaurant/Hambleton-LE15_8TH-Hambleton_Hall-33z75um",
    "website": "http://www.hambletonhall.com"
  },
  {
    "address": "Rosevine, Portscatho TR2 5EW",
    "country": "gb",
    "cuisine": "Modern cuisine",
    "latitude": "50.1889",
    "longitude": "-4.97088",
    "name": "Driftwood",
    "neighborhood": "5EW",
    "num_star": 1,
    "price_range": "From \u00a375 to \u00a375",
    "url": "https://www.viamichelin.co.uk/web/Restaurant/Portscatho-TR2_5EW-Driftwood-34045dl",
    "website": "http://www.driftwoodhotel.co.uk"
  },
  {
    "address": "Eglwysfach, Machynlleth SY20 8TA",
    "country": "gb",
    "cuisine": "Creative",
    "latitude": "52.54476",
    "longitude": "-3.94491",
    "name": "Ynyshir",
    "neighborhood": "8TA",
    "num_star": 1,
    "price_range": "From \u00a375 to \u00a3140",
    "url": "https://www.viamichelin.co.uk/web/Restaurant/Machynlleth-SY20_8TA-Ynyshir-34c7h8c",
    "website": "http://www.ynyshir.co.uk"
  },
  {
    "address": "85 Old Hunstanton Rd, Old Hunstanton, Hunstanton PE36 6HZ",
    "country": "gb",
    "cuisine": "Modern cuisine",
    "latitude": "52.9511",
    "longitude": "0.50927",
    "name": "The Neptune",
    "neighborhood": "6HZ",
    "num_star": 1,
    "price_range": "From \u00a362 to \u00a362",
    "url": "https://www.viamichelin.co.uk/web/Restaurant/Hunstanton-PE36_6HZ-The_Neptune-34fsi68",
    "website": "http://www.theneptune.co.uk"
  },
  {
    "address": "Oldstead YO61 4BL",
    "country": "gb",
    "cuisine": "Modern British",
    "latitude": "54.21205",
    "longitude": "-1.1879199",
    "name": "Black Swan",
    "neighborhood": "4BL",
    "num_star": 1,
    "price_range": "From \u00a398 to \u00a398",
    "url": "https://www.viamichelin.co.uk/web/Restaurant/Oldstead-YO61_4BL-Black_Swan-34gj5fh",
    "website": "http://www.blackswanoldstead.co.uk"
  },
  {
    "address": "Llandewi Skirrid, Llanddewi Skirrid NP7 8AW",
    "country": "gb",
    "cuisine": "Modern British",
    "latitude": "51.84534",
    "longitude": "-2.95438",
    "name": "Walnut Tree",
    "neighborhood": "8AW",
    "num_star": 1,
    "price_range": "From \u00a330 to \u00a360",
    "url": "https://www.viamichelin.co.uk/web/Restaurant/Llanddewi_Skirrid-NP7_8AW-Walnut_Tree-34jrjpd",
    "website": "http://www.thewalnuttreeinn.com"
  },
  {
    "address": "88 Chesil St., Winchester SO23 0HX",
    "country": "gb",
    "cuisine": "Modern cuisine",
    "latitude": "51.05796",
    "longitude": "-1.3069497",
    "name": "Black Rat",
    "neighborhood": "0HX",
    "num_star": 1,
    "price_range": "From \u00a326 to \u00a351",
    "url": "https://www.viamichelin.co.uk/web/Restaurant/Winchester-SO23_0HX-Black_Rat-34kbh9m",
    "website": "http://www.theblackrat.co.uk"
  },
  {
    "address": "Devonshire Sq, Cartmel LA11 6QD",
    "country": "gb",
    "cuisine": "Creative British",
    "latitude": "54.20074",
    "longitude": "-2.95464",
    "name": "Rogan & Co",
    "neighborhood": "6QD",
    "num_star": 1,
    "price_range": "From \u00a325 to \u00a345",
    "url": "https://www.viamichelin.co.uk/web/Restaurant/Cartmel-LA11_6QD-Rogan_Co-34mnlqa",
    "website": "http://www.roganandco.co.uk"
  },
  {
    "address": "3 Stans Way, East St, Horsham RH12 1HU",
    "country": "gb",
    "cuisine": "Modern British",
    "latitude": "51.062347",
    "longitude": "-0.326034",
    "name": "Restaurant Tristan",
    "neighborhood": "1HU",
    "num_star": 1,
    "price_range": "From \u00a330 to \u00a350",
    "url": "https://www.viamichelin.co.uk/web/Restaurant/Horsham-RH12_1HU-Restaurant_Tristan-34o3u7j",
    "website": "http://www.restauranttristan.co.uk"
  },
  {
    "address": "20 Queen St, Mayfair W1J 5PP",
    "country": "gb",
    "cuisine": "Italian",
    "latitude": "51.50707",
    "longitude": "-0.14722",
    "name": "Murano",
    "neighborhood": "5PP",
    "num_star": 1,
    "price_range": "From \u00a328 to \u00a370",
    "url": "https://www.viamichelin.co.uk/web/Restaurant/Mayfair-W1J_5PP-Murano-34ot4s8",
    "website": "http://www.muranolondon.com"
  },
  {
    "address": "15-17 Blandford St., Regent's Park and Marylebone W1U 3DG",
    "country": "gb",
    "cuisine": "Indian",
    "latitude": "51.51834",
    "longitude": "-0.153031",
    "name": "Trishna",
    "neighborhood": "3DG",
    "num_star": 1,
    "price_range": "From \u00a328 to \u00a365",
    "url": "https://www.viamichelin.co.uk/web/Restaurant/Regent_s_Park_and_Marylebone-W1U_3DG-Trishna-34s9ajt",
    "website": "http://www.trishnalondon.com"
  },
  {
    "address": "Walham Grove, Fulham SW6 1QP",
    "country": "gb",
    "cuisine": "Modern British",
    "latitude": "51.48291",
    "longitude": "-0.19651",
    "name": "Harwood Arms",
    "neighborhood": "1QP",
    "num_star": 1,
    "price_range": "From \u00a333 to \u00a350",
    "url": "https://www.viamichelin.co.uk/web/Restaurant/Fulham-SW6_1QP-Harwood_Arms-34saieo",
    "website": "http://www.harwoodarms.com"
  },
  {
    "address": "Knowle Hill, New Town, Chew Magna BS40 8TQ",
    "country": "gb",
    "cuisine": "Modern British",
    "latitude": "51.34938",
    "longitude": "-2.5925994",
    "name": "Pony & Trap",
    "neighborhood": "8TQ",
    "num_star": 1,
    "price_range": "From \u00a333 to \u00a348",
    "url": "https://www.viamichelin.co.uk/web/Restaurant/Chew_Magna-BS40_8TQ-Pony_Trap-34tovlm",
    "website": "http://www.theponyandtrap.co.uk"
  },
  {
    "address": "3 Royal Terr, Edinburgh EH7 5AB",
    "country": "gb",
    "cuisine": "Creative",
    "latitude": "55.95674",
    "longitude": "-3.18018",
    "name": "21212",
    "neighborhood": "5AB",
    "num_star": 1,
    "price_range": "From \u00a328 to \u00a385",
    "url": "https://www.viamichelin.co.uk/web/Restaurant/Edinburgh-EH7_5AB-21212-34vgsei",
    "website": "http://www.21212restaurant.co.uk"
  },
  {
    "address": "East Chisenbury SN9 6AQ",
    "country": "gb",
    "cuisine": "Classic cuisine",
    "latitude": "51.2736",
    "longitude": "-1.8007996",
    "name": "Red Lion Freehouse",
    "neighborhood": "6AQ",
    "num_star": 1,
    "price_range": "From \u00a324 to \u00a354",
    "url": "https://www.viamichelin.co.uk/web/Restaurant/East_Chisenbury-SN9_6AQ-Red_Lion_Freehouse-34yy05z",
    "website": "http://www.redlionfreehouse.com"
  },
  {
    "address": "35 Spital Sq, Spitalfields E1 6DY",
    "country": "gb",
    "cuisine": "French",
    "latitude": "51.52032",
    "longitude": "-0.0781",
    "name": "Galvin La Chapelle",
    "neighborhood": "6DY",
    "num_star": 1,
    "price_range": "From \u00a334 to \u00a378",
    "url": "https://www.viamichelin.co.uk/web/Restaurant/Spitalfields-E1_6DY-Galvin_La_Chapelle-35040uf",
    "website": "http://www.galvinrestaurants.com"
  },
  {
    "address": "Shadowbrook Ln, Hampton in Arden B92 ODQ",
    "country": "gb",
    "cuisine": "Creative British",
    "latitude": "52.4259",
    "longitude": "-1.70536",
    "name": "Peel's",
    "neighborhood": "ODQ",
    "num_star": 1,
    "price_range": "From \u00a370 to \u00a385",
    "url": "https://www.viamichelin.co.uk/web/Restaurant/Hampton_in_Arden-B92_ODQ-Peel_s-354orr2",
    "website": "http://www.hamptonmanor.com"
  },
  {
    "address": "Broad St, Montgomery SY15 6PN",
    "country": "gb",
    "cuisine": "French",
    "latitude": "52.55568",
    "longitude": "-3.13769",
    "name": "The Checkers",
    "neighborhood": "6PN",
    "num_star": 1,
    "price_range": "From \u00a365 to \u00a365",
    "url": "https://www.viamichelin.co.uk/web/Restaurant/Montgomery-SY15_6PN-The_Checkers-7jxhh4w",
    "website": "http://www.checkerswales.co.uk"
  },
  {
    "address": "2c St Mary's Row, Wake Green Rd, Birmingham B13 9EZ",
    "country": "gb",
    "cuisine": "Modern British",
    "latitude": "52.44588",
    "longitude": "-1.88384",
    "name": "Carters of Moseley",
    "neighborhood": "9EZ",
    "num_star": 1,
    "price_range": "From \u00a340 to \u00a385",
    "url": "https://www.viamichelin.co.uk/web/Restaurant/Birmingham-B13_9EZ-Carters_of_Moseley-7jxxxe9",
    "website": "http://www.cartersofmoseley.co.uk"
  },
  {
    "address": "8-10 Pollen St, Mayfair W1S 1NQ",
    "country": "gb",
    "cuisine": "Creative",
    "latitude": "51.5133",
    "longitude": "-0.14234",
    "name": "Pollen Street Social",
    "neighborhood": "1NQ",
    "num_star": 1,
    "price_range": "From \u00a337 to \u00a378",
    "url": "https://www.viamichelin.co.uk/web/Restaurant/Mayfair-W1S_1NQ-Pollen_Street_Social-7k0bnr6",
    "website": "http://www.pollenstreetsocial.com"
  },
  {
    "address": "16 New St, Kenilworth CV8 2EZ",
    "country": "gb",
    "cuisine": "Classic cuisine",
    "latitude": "52.350315",
    "longitude": "-1.5801147",
    "name": "The Cross at Kenilworth",
    "neighborhood": "2EZ",
    "num_star": 1,
    "price_range": "From \u00a330 to \u00a370",
    "url": "https://www.viamichelin.co.uk/web/Restaurant/Kenilworth-CV8_2EZ-The_Cross_at_Kenilworth-8ze0iukv",
    "website": "http://www.thecrosskenilworth.co.uk"
  },
  {
    "address": "42 Albemarle St, Mayfair W1S 4JH",
    "country": "gb",
    "cuisine": "Indian",
    "latitude": "51.50854",
    "longitude": "-0.14154",
    "name": "Gymkhana",
    "neighborhood": "4JH",
    "num_star": 1,
    "price_range": "From \u00a325 to \u00a367",
    "url": "https://www.viamichelin.co.uk/web/Restaurant/Mayfair-W1S_4JH-Gymkhana-8ze0sn7p",
    "website": "http://www.gymkhanalondon.com"
  },
  {
    "address": "28-30 The Close, Newcastle upon Tyne NE1 3RF",
    "country": "gb",
    "cuisine": "Modern cuisine",
    "latitude": "54.96758",
    "longitude": "-1.61127",
    "name": "House of Tides",
    "neighborhood": "3RF",
    "num_star": 1,
    "price_range": "From \u00a370 to \u00a395",
    "url": "https://www.viamichelin.co.uk/web/Restaurant/Newcastle_upon_Tyne-NE1_3RF-House_of_Tides-8ze5d1ii",
    "website": "http://www.houseoftides.co.uk"
  },
  {
    "address": "The Esplanade, Penarth CF64 3AU",
    "country": "gb",
    "cuisine": "Modern cuisine",
    "latitude": "51.434387",
    "longitude": "-3.167951",
    "name": "James Sommerin",
    "neighborhood": "3AU",
    "num_star": 1,
    "price_range": "From \u00a336 to \u00a385",
    "url": "https://www.viamichelin.co.uk/web/Restaurant/Penarth-CF64_3AU-James_Sommerin-8ze71158",
    "website": "http://www.jamessommerinrestaurant.co.uk"
  },
  {
    "address": "28-40 Howard St, Belfast BT1 6PF",
    "country": "gb",
    "cuisine": "Modern cuisine",
    "latitude": "54.595898",
    "longitude": "-5.9322424",
    "name": "Eipic",
    "neighborhood": "6PF",
    "num_star": 1,
    "price_range": "From \u00a345 to \u00a370",
    "url": "https://www.viamichelin.co.uk/web/Restaurant/Belfast-BT1_6PF-Eipic-8ze8zbfg",
    "website": "http://www.deaneseipic.com"
  },
  {
    "address": "Tea Building, 56 Shoreditch High St, Shoreditch E1 6JJ",
    "country": "gb",
    "cuisine": "Modern British",
    "latitude": "51.52378",
    "longitude": "-0.07704",
    "name": "Lyle's",
    "neighborhood": "6JJ",
    "num_star": 1,
    "price_range": "From \u00a334 to \u00a359",
    "url": "https://www.viamichelin.co.uk/web/Restaurant/Shoreditch-E1_6JJ-Lyle_s-8zeal3lc",
    "website": "http://www.lyleslondon.com"
  },
  {
    "address": "Burchett's Green SL6 6QZ",
    "country": "gb",
    "cuisine": "Regional cuisine",
    "latitude": "51.524807",
    "longitude": "-0.79152906",
    "name": "Crown",
    "neighborhood": "6QZ",
    "num_star": 1,
    "price_range": "From \u00a324 to \u00a342",
    "url": "https://www.viamichelin.co.uk/web/Restaurant/Burchett_s_Green-SL6_6QZ-Crown-8zebakf5",
    "website": "http://www.thecrownburchettsgreen.com"
  },
  {
    "address": "300 Wheatley Lane Rd, Fence BB12 9QA",
    "country": "gb",
    "cuisine": "Modern British",
    "latitude": "53.83916",
    "longitude": "-2.25097",
    "name": "White Swan",
    "neighborhood": "9QA",
    "num_star": 1,
    "price_range": "From \u00a328 to \u00a345",
    "url": "https://www.viamichelin.co.uk/web/Restaurant/Fence-BB12_9QA-White_Swan-rbh89wq9",
    "website": "http://www.whiteswanatfence.co.uk"
  },
  {
    "address": "Lambourn Rd, Bagnor, Newbury RG20 8BN",
    "country": "gb",
    "cuisine": "Modern cuisine",
    "latitude": "51.415802",
    "longitude": "-1.353532",
    "name": "Woodspeen",
    "neighborhood": "8BN",
    "num_star": 1,
    "price_range": "From \u00a329 to \u00a360",
    "url": "https://www.viamichelin.co.uk/web/Restaurant/Newbury-RG20_8BN-Woodspeen-rbhkxy14",
    "website": "http://www.thewoodspeen.com"
  },
  {
    "address": "3 West St, Marlow SL7 2LS",
    "country": "gb",
    "cuisine": "Modern British",
    "latitude": "51.571712",
    "longitude": "-0.7772678",
    "name": "The Coach",
    "neighborhood": "2LS",
    "num_star": 1,
    "price_range": "From \u00a320 to \u00a333",
    "url": "https://www.viamichelin.co.uk/web/Restaurant/Marlow-SL7_2LS-The_Coach-rbhqz750",
    "website": "http://www.thecoachmarlow.co.uk"
  },
  {
    "address": "215 Banbury Rd, Summertown, Oxford OX2 7HQ",
    "country": "gb",
    "cuisine": "Modern British",
    "latitude": "51.776733",
    "longitude": "-1.264794",
    "name": "Oxford Kitchen",
    "neighborhood": "7HQ",
    "num_star": 1,
    "price_range": "From \u00a328 to \u00a345",
    "url": "https://www.viamichelin.co.uk/web/Restaurant/Oxford-OX2_7HQ-Oxford_Kitchen-rbhsxyxa",
    "website": "http://www.theoxfordkitchen.co.uk"
  },
  {
    "address": "113 Great Portland St, Regent's Park and Marylebone W1W 6QQ",
    "country": "gb",
    "cuisine": "Modern cuisine",
    "latitude": "51.519726",
    "longitude": "-0.142555",
    "name": "Portland",
    "neighborhood": "6QQ",
    "num_star": 1,
    "price_range": "From \u00a330 to \u00a375",
    "url": "https://www.viamichelin.co.uk/web/Restaurant/Regent_s_Park_and_Marylebone-W1W_6QQ-Portland-rbi0c53t",
    "website": "http://www.portlandrestaurant.co.uk"
  },
  {
    "address": "68-78 Vicar Ln, Leeds LS1 7JH",
    "country": "gb",
    "cuisine": "Creative",
    "latitude": "53.798286",
    "longitude": "-1.539937",
    "name": "The Man Behind The Curtain",
    "neighborhood": "7JH",
    "num_star": 1,
    "price_range": "From \u00a365 to \u00a395",
    "url": "https://www.viamichelin.co.uk/web/Restaurant/Leeds-LS1_7JH-The_Man_Behind_The_Curtain-rbisb614",
    "website": "http://www.themanbehindthecurtain.co.uk"
  },
  {
    "address": "56 Fore St, Ilfracombe EX34 9DJ",
    "country": "gb",
    "cuisine": "Seafood",
    "latitude": "51.209476",
    "longitude": "-4.118807",
    "name": "Thomas Carr @ The Olive Room",
    "neighborhood": "9DJ",
    "num_star": 1,
    "price_range": "From \u00a355 to \u00a395",
    "url": "https://www.viamichelin.co.uk/web/Restaurant/Ilfracombe-EX34_9DJ-Thomas_Carr_A_The_Olive_Room-rbj8cgo9",
    "website": "http://www.thomascarrdining.co.uk"
  },
  {
    "address": "Keswick Rd, Grasmere LA22 9RN",
    "country": "gb",
    "cuisine": "Modern British",
    "latitude": "54.46396",
    "longitude": "-3.0157998",
    "name": "Forest Side",
    "neighborhood": "9RN",
    "num_star": 1,
    "price_range": "From \u00a335 to \u00a395",
    "url": "https://www.viamichelin.co.uk/web/Restaurant/Grasmere-LA22_9RN-Forest_Side-ykaqmezv",
    "website": "http://www.theforestside.com"
  },
  {
    "address": "21 Cotham Rd South, Bristol BS6 5TZ",
    "country": "gb",
    "cuisine": "Modern British",
    "latitude": "51.46278",
    "longitude": "-2.597758",
    "name": "Bulrush",
    "neighborhood": "5TZ",
    "num_star": 1,
    "price_range": "From \u00a334 to \u00a350",
    "url": "https://www.viamichelin.co.uk/web/Restaurant/Bristol-BS6_5TZ-Bulrush-ykatbf6p",
    "website": "http://www.bulrushrestaurant.co.uk"
  },
  {
    "address": "22 Charlotte St, Bloomsbury W1T 2NB",
    "country": "gb",
    "cuisine": "Mediterranean cuisine",
    "latitude": "51.51875",
    "longitude": "-0.13500679",
    "name": "The Ninth",
    "neighborhood": "2NB",
    "num_star": 1,
    "price_range": "From \u00a327 to \u00a366",
    "url": "https://www.viamichelin.co.uk/web/Restaurant/Bloomsbury-W1T_2NB-The_Ninth-ykau5435",
    "website": "http://www.theninthlondon.com"
  },
  {
    "address": "Prescot Rd, Aughton L39 6RT",
    "country": "gb",
    "cuisine": "Modern British",
    "latitude": "53.54162",
    "longitude": "-2.8895495",
    "name": "Moor Hall",
    "neighborhood": "6RT",
    "num_star": 2,
    "price_range": "From \u00a340 to \u00a3105",
    "url": "https://www.viamichelin.co.uk/web/Restaurant/Aughton-L39_6RT-Moor_Hall-11nkbat80",
    "website": "http://www.moorhall.com/"
  },
  {
    "address": "43 Upper Brook St, Mayfair W1K 7QR",
    "country": "gb",
    "cuisine": "French",
    "latitude": "51.51127",
    "longitude": "-0.15517",
    "name": "Le Gavroche",
    "neighborhood": "7QR",
    "num_star": 2,
    "price_range": "From \u00a368 to \u00a3197",
    "url": "https://www.viamichelin.co.uk/web/Restaurant/Mayfair-W1K_7QR-Le_Gavroche-32g106e",
    "website": "http://www.le-gavroche.co.uk"
  },
  {
    "address": "9 Conduit St (1st floor), Mayfair W1S 2XG",
    "country": "gb",
    "cuisine": "Modern French",
    "latitude": "51.51287",
    "longitude": "-0.14136",
    "name": "Sketch (The Lecture Room & Library)",
    "neighborhood": "2XG",
    "num_star": 2,
    "price_range": "From \u00a3102 to \u00a3131",
    "url": "https://www.viamichelin.co.uk/web/Restaurant/Mayfair-W1S_2XG-Sketch_The_Lecture_Room_Library-32g3zjj",
    "website": "http://sketch.london/"
  },
  {
    "address": "6 New Rd, Port Isaac PL29 3SB",
    "country": "gb",
    "cuisine": "Seafood",
    "latitude": "50.594086",
    "longitude": "-4.82854",
    "name": "Restaurant Nathan Outlaw",
    "neighborhood": "3SB",
    "num_star": 2,
    "price_range": "From \u00a3130 to \u00a3130",
    "url": "https://www.viamichelin.co.uk/web/Restaurant/Port_Isaac-PL29_3SB-Restaurant_Nathan_Outlaw-rbh901lt",
    "website": "http://www.nathan-outlaw.com"
  },
  {
    "address": "70 Charlotte St, Bloomsbury W1T 4QG",
    "country": "gb",
    "cuisine": "Modern cuisine",
    "latitude": "51.52041",
    "longitude": "-0.13647",
    "name": "Kitchen Table at Bubbledogs",
    "neighborhood": "4QG",
    "num_star": 2,
    "price_range": "From \u00a3125 to \u00a3125",
    "url": "https://www.viamichelin.co.uk/web/Restaurant/Bloomsbury-W1T_4QG-Kitchen_Table_at_Bubbledogs-2v6pfafi",
    "website": "http://www.kitchentablelondon.co.uk"
  },
  {
    "address": "27a Hay's Mews, Mayfair W1J 5NY",
    "country": "gb",
    "cuisine": "Creative",
    "latitude": "51.50769",
    "longitude": "-0.14926",
    "name": "Greenhouse",
    "neighborhood": "5NY",
    "num_star": 2,
    "price_range": "From \u00a345 to \u00a3100",
    "url": "https://www.viamichelin.co.uk/web/Restaurant/Mayfair-W1J_5NY-Greenhouse-32g59cj",
    "website": "http://www.greenhouserestaurant.co.uk"
  },
  {
    "address": "14-16 Bruton Pl., Mayfair W1J 6LX",
    "country": "gb",
    "cuisine": "Japanese",
    "latitude": "51.5113",
    "longitude": "-0.14455",
    "name": "Umu",
    "neighborhood": "6LX",
    "num_star": 2,
    "price_range": "From \u00a345 to \u00a3155",
    "url": "https://www.viamichelin.co.uk/web/Restaurant/Mayfair-W1J_6LX-Umu-32gbvvu",
    "website": "http://www.umurestaurant.com"
  },
  {
    "address": "Michelin House, 81 Fulham Rd, Chelsea SW3 6RD",
    "country": "gb",
    "cuisine": "French",
    "latitude": "51.49341",
    "longitude": "-0.16908933",
    "name": "Claude Bosi at Bibendum",
    "neighborhood": "6RD",
    "num_star": 2,
    "price_range": "From \u00a353 to \u00a3130",
    "url": "https://www.viamichelin.co.uk/web/Restaurant/Chelsea-SW3_6RD-Claude_Bosi_at_Bibendum-32k3ctz",
    "website": "http://www.bibendum.co.uk"
  },
  {
    "address": "127 Ledbury Rd., North Kensington W11 2AQ",
    "country": "gb",
    "cuisine": "Modern cuisine",
    "latitude": "51.51674",
    "longitude": "-0.20007",
    "name": "Ledbury",
    "neighborhood": "2AQ",
    "num_star": 2,
    "price_range": "From \u00a380 to \u00a3150",
    "url": "https://www.viamichelin.co.uk/web/Restaurant/North_Kensington-W11_2AQ-Ledbury-32mkyft",
    "website": "http://www.theledbury.com"
  },
  {
    "address": "Midsummer Common, Cambridge CB4 1HA",
    "country": "gb",
    "cuisine": "Modern cuisine",
    "latitude": "52.21243",
    "longitude": "0.12779",
    "name": "Midsummer House",
    "neighborhood": "1HA",
    "num_star": 2,
    "price_range": "From \u00a369 to \u00a3118",
    "url": "https://www.viamichelin.co.uk/web/Restaurant/Cambridge-CB4_1HA-Midsummer_House-32xb4p1",
    "website": "http://www.midsummerhouse.co.uk"
  },
  {
    "address": "Cavendish St, Grange-over-Sands LA11 6PZ",
    "country": "gb",
    "cuisine": "Creative",
    "latitude": "54.201885",
    "longitude": "-2.953807",
    "name": "L'Enclume",
    "neighborhood": "6PZ",
    "num_star": 2,
    "price_range": "From \u00a359 to \u00a3155",
    "url": "https://www.viamichelin.co.uk/web/Restaurant/Grange_over_Sands-LA11_6PZ-L_Enclume-331vwbn",
    "website": "http://www.lenclume.co.uk"
  },
  {
    "address": "92 Kensington Park Rd, North Kensington W11 2PN",
    "country": "gb",
    "cuisine": "Modern British",
    "latitude": "51.51261",
    "longitude": "-0.20305157",
    "name": "CORE by Clare Smyth",
    "neighborhood": "2PN",
    "num_star": 2,
    "price_range": "From \u00a365 to \u00a3105",
    "url": "https://www.viamichelin.co.uk/web/Restaurant/North_Kensington-W11_2PN-CORE_by_Clare_Smyth-14ovrruv6",
    "website": "http://www.corebyclaresmyth.com"
  },
  {
    "address": "126 West St., Marlow SL7 2BP",
    "country": "gb",
    "cuisine": "Modern British",
    "latitude": "51.57031",
    "longitude": "-0.78113",
    "name": "Hand and Flowers",
    "neighborhood": "2BP",
    "num_star": 2,
    "price_range": "From \u00a330 to \u00a373",
    "url": "https://www.viamichelin.co.uk/web/Restaurant/Marlow-SL7_2BP-Hand_and_Flowers-337onl2",
    "website": "http://www.thehandandflowers.co.uk"
  },
  {
    "address": "Trentside, Lenton Ln, Nottingham NG7 2SA",
    "country": "gb",
    "cuisine": "Creative",
    "latitude": "52.92438",
    "longitude": "-1.1733198",
    "name": "Restaurant Sat Bains",
    "neighborhood": "2SA",
    "num_star": 2,
    "price_range": "From \u00a395 to \u00a3110",
    "url": "https://www.viamichelin.co.uk/web/Restaurant/Nottingham-NG7_2SA-Restaurant_Sat_Bains-3390l7j",
    "website": "http://www.restaurantsatbains.com"
  },
  {
    "address": "Auchterarder PH3 1NF",
    "country": "gb",
    "cuisine": "Creative French",
    "latitude": "56.28339",
    "longitude": "-3.75149",
    "name": "Andrew Fairlie at Gleneagles",
    "neighborhood": "1NF",
    "num_star": 2,
    "price_range": "From \u00a3110 to \u00a3155",
    "url": "https://www.viamichelin.co.uk/web/Restaurant/Auchterarder-PH3_1NF-Andrew_Fairlie_at_Gleneagles-33hrdc5",
    "website": "http://www.andrewfairlie.co.uk"
  },
  {
    "address": "Church Rd, Great Milton OX44 7PD",
    "country": "gb",
    "cuisine": "French",
    "latitude": "51.71674",
    "longitude": "-1.09187",
    "name": "Belmond Le Manoir aux Quat' Saisons",
    "neighborhood": "7PD",
    "num_star": 2,
    "price_range": "From \u00a395 to \u00a3170",
    "url": "https://www.viamichelin.co.uk/web/Restaurant/Great_Milton-OX44_7PD-Belmond_Le_Manoir_aux_Quat_Saisons-33zgur6",
    "website": "http://www.belmond.com"
  },
  {
    "address": "Carlos Pl., Mayfair W1K 2AL",
    "country": "gb",
    "cuisine": "Modern cuisine",
    "latitude": "51.5101",
    "longitude": "-0.14957003",
    "name": "H\u00e9l\u00e8ne Darroze at The Connaught",
    "neighborhood": "2AL",
    "num_star": 2,
    "price_range": "From \u00a355 to \u00a3105",
    "url": "https://www.viamichelin.co.uk/web/Restaurant/Mayfair-W1K_2AL-Helene_Darroze_at_The_Connaught-34nu1j8",
    "website": "http://www.the-connaught.co.uk"
  },
  {
    "address": "Summerhouse DL2 3UD",
    "country": "gb",
    "cuisine": "Modern British",
    "latitude": "54.56647",
    "longitude": "-1.689258",
    "name": "Raby Hunt",
    "neighborhood": "3UD",
    "num_star": 2,
    "price_range": "From \u00a3120 to \u00a3150",
    "url": "https://www.viamichelin.co.uk/web/Restaurant/Summerhouse-DL2_3UD-Raby_Hunt-7jrgwzk",
    "website": "http://www.rabyhuntrestaurant.co.uk"
  },
  {
    "address": "66 Knightsbridge,, Hyde Park SW1X 7LA",
    "country": "gb",
    "cuisine": "Traditional British",
    "latitude": "51.50208",
    "longitude": "-0.16011",
    "name": "Dinner by Heston Blumenthal",
    "neighborhood": "7LA",
    "num_star": 2,
    "price_range": "From \u00a345 to \u00a3121",
    "url": "https://www.viamichelin.co.uk/web/Restaurant/Hyde_Park-SW1X_7LA-Dinner_by_Heston_Blumenthal-7jxad8e",
    "website": "http://www.dinnerbyheston.com"
  },
  {
    "address": "Park Ln, Mayfair W1K 1QA",
    "country": "gb",
    "cuisine": "French",
    "latitude": "51.50712",
    "longitude": "-0.15252003",
    "name": "Alain Ducasse at The Dorchester",
    "neighborhood": "1QA",
    "num_star": 3,
    "price_range": "From \u00a370 to \u00a3105",
    "url": "https://www.viamichelin.co.uk/web/Restaurant/Mayfair-W1K_1QA-Alain_Ducasse_at_The_Dorchester-34ka5yi",
    "website": "http://www.alainducasse-dorchester.com"
  },
  {
    "address": "68-69 Royal Hospital Rd., Chelsea SW3 4HP",
    "country": "gb",
    "cuisine": "French",
    "latitude": "51.48546",
    "longitude": "-0.16202009",
    "name": "Gordon Ramsay",
    "neighborhood": "4HP",
    "num_star": 3,
    "price_range": "From \u00a370 to \u00a3120",
    "url": "https://www.viamichelin.co.uk/web/Restaurant/Chelsea-SW3_4HP-Gordon_Ramsay-32jzz8i",
    "website": "http://www.gordonramsayrestaurants.com"
  },
  {
    "address": "Ferry Rd, Bray SL6 2AT",
    "country": "gb",
    "cuisine": "Classic French",
    "latitude": "51.50773",
    "longitude": "-0.70121",
    "name": "Waterside Inn",
    "neighborhood": "2AT",
    "num_star": 3,
    "price_range": "From \u00a364 to \u00a3175",
    "url": "https://www.viamichelin.co.uk/web/Restaurant/Bray-SL6_2AT-Waterside_Inn-32vml4s",
    "website": "http://www.waterside-inn.co.uk"
  },
  {
    "address": "High St, Bray SL6 2AQ",
    "country": "gb",
    "cuisine": "Creative",
    "latitude": "51.50828",
    "longitude": "-0.70232",
    "name": "Fat Duck",
    "neighborhood": "2AQ",
    "num_star": 3,
    "price_range": "From \u00a3325 to \u00a3325",
    "url": "https://www.viamichelin.co.uk/web/Restaurant/Bray-SL6_2AQ-Fat_Duck-32voh2p",
    "website": "http://www.thefatduck.co.uk"
  },
  {
    "address": "12 New Burlington St, Mayfair W1S 3BF",
    "country": "gb",
    "cuisine": "Japanese",
    "latitude": "51.511826",
    "longitude": "-0.14038901",
    "name": "The Araki",
    "neighborhood": "3BF",
    "num_star": 3,
    "price_range": "From \u00a3300 to \u00a3300",
    "url": "https://www.viamichelin.co.uk/web/Restaurant/Mayfair-W1S_3BF-The_Araki-rbhnsfx7",
    "website": "http://www.the-araki.com"
  }
]