[
  {
    "address": "Maritiem Plaza 1, 4506 KZ Cadzand Routeplanner",
    "country": "nl",
    "cuisine": "Vis en zeevruchten,Moderne keuken",
    "latitude": "51.37765",
    "longitude": "3.38063",
    "name": "AIRrepublic",
    "neighborhood": "Routeplanner",
    "num_star": 1,
    "price_range": "Van \u20ac 49 tot \u20ac 65",
    "url": "https://www.viamichelin.nl/web/Restaurant/Cadzand-4506_KZ-AIRrepublic-12qrv4o5r",
    "website": "http://www.air-republic.com"
  },
  {
    "address": "Rotterdamseweg 480, 2636 KB Schipluiden Routeplanner",
    "country": "nl",
    "cuisine": "Frans modern",
    "latitude": "51.962902",
    "longitude": "4.393784",
    "name": "Aan de Zweth",
    "neighborhood": "Routeplanner",
    "num_star": 1,
    "price_range": "Van \u20ac 69 tot \u20ac 95",
    "url": "https://www.viamichelin.nl/web/Restaurant/Schipluiden-2636_KB-Aan_de_Zweth-3ggclt4",
    "website": "http://www.aandezweth.nl"
  },
  {
    "address": "Laan van Roos en Doorn 51a, 2514 BC Den Haag Routeplanner",
    "country": "nl",
    "cuisine": "Frans creatief",
    "latitude": "52.08602",
    "longitude": "4.31361",
    "name": "Calla's",
    "neighborhood": "Routeplanner",
    "num_star": 1,
    "price_range": "Van \u20ac 79 tot \u20ac 99",
    "url": "https://www.viamichelin.nl/web/Restaurant/Den_Haag-2514_BC-Calla_s-3gglbrg",
    "website": "http://www.restaurantcallas.nl"
  },
  {
    "address": "Nieuwe Doelenstraat 2, 1012 CP Amsterdam Routeplanner",
    "country": "nl",
    "cuisine": "Creatief",
    "latitude": "52.368",
    "longitude": "4.89491",
    "name": "Bord'Eau",
    "neighborhood": "Routeplanner",
    "num_star": 1,
    "price_range": "Van \u20ac 114 tot \u20ac 194",
    "url": "https://www.viamichelin.nl/web/Restaurant/Amsterdam-1012_CP-Bord_Eau-3ghd6o7",
    "website": "http://www.bordeau.nl"
  },
  {
    "address": "Prins Hendrikkade 59, 1012 AD Amsterdam Routeplanner",
    "country": "nl",
    "cuisine": "Bio",
    "latitude": "52.37658",
    "longitude": "4.90037",
    "name": "Vermeer",
    "neighborhood": "Routeplanner",
    "num_star": 1,
    "price_range": "Van \u20ac 65 tot \u20ac 85",
    "url": "https://www.viamichelin.nl/web/Restaurant/Amsterdam-1012_AD-Vermeer-3ghfyl2",
    "website": "http://www.restaurantvermeer.nl"
  },
  {
    "address": "Keizersgracht 384, 1016 GB Amsterdam Routeplanner",
    "country": "nl",
    "cuisine": "Creatief",
    "latitude": "52.36998",
    "longitude": "4.88437",
    "name": "Vinkeles",
    "neighborhood": "Routeplanner",
    "num_star": 1,
    "price_range": "Van \u20ac 74 tot \u20ac 146",
    "url": "https://www.viamichelin.nl/web/Restaurant/Amsterdam-1016_GB-Vinkeles-3ghogsi",
    "website": "http://www.vinkeles.com"
  },
  {
    "address": "Geldersekade 29, 1011 EJ Amsterdam Routeplanner",
    "country": "nl",
    "cuisine": "Creatief",
    "latitude": "52.375378",
    "longitude": "4.9022136",
    "name": "Lastage",
    "neighborhood": "Routeplanner",
    "num_star": 1,
    "price_range": "Van \u20ac 47 tot \u20ac 89",
    "url": "https://www.viamichelin.nl/web/Restaurant/Amsterdam-1011_EJ-Lastage-3gi7kg1",
    "website": "http://www.restaurantlastage.nl"
  },
  {
    "address": "Ferdinand Bolstraat 333, 1072 LH Amsterdam Routeplanner",
    "country": "nl",
    "cuisine": "Japans",
    "latitude": "52.35045",
    "longitude": "4.89149",
    "name": "Yamazato",
    "neighborhood": "Routeplanner",
    "num_star": 1,
    "price_range": "Van \u20ac 37 tot \u20ac 157",
    "url": "https://www.viamichelin.nl/web/Restaurant/Amsterdam-1072_LH-Yamazato-3gie613",
    "website": "http://www.yamazato.nl"
  },
  {
    "address": "Meent 72a, 3011 JN Rotterdam Routeplanner",
    "country": "nl",
    "cuisine": "Frans modern",
    "latitude": "51.92245",
    "longitude": "4.48322",
    "name": "Amarone",
    "neighborhood": "Routeplanner",
    "num_star": 1,
    "price_range": "Van \u20ac 65 tot \u20ac 95",
    "url": "https://www.viamichelin.nl/web/Restaurant/Rotterdam-3011_JN-Amarone-3gjrexl",
    "website": "http://www.restaurantamarone.nl"
  },
  {
    "address": "O.Z. Voorburgwal 197, 1012 EX Amsterdam Routeplanner",
    "country": "nl",
    "cuisine": "Vis en zeevruchten",
    "latitude": "52.37045",
    "longitude": "4.89488",
    "name": "Bridges",
    "neighborhood": "Routeplanner",
    "num_star": 1,
    "price_range": "Van \u20ac 55 tot \u20ac 89",
    "url": "https://www.viamichelin.nl/web/Restaurant/Amsterdam-1012_EX-Bridges-3gjxqie",
    "website": "http://www.bridgesrestaurant.nl"
  },
  {
    "address": "Krommestraat 49, 3811 CB Amersfoort Routeplanner",
    "country": "nl",
    "cuisine": "Frans creatief",
    "latitude": "52.15683",
    "longitude": "5.38792",
    "name": "Blok's",
    "neighborhood": "Routeplanner",
    "num_star": 1,
    "price_range": "Van \u20ac 39 tot \u20ac 69",
    "url": "https://www.viamichelin.nl/web/Restaurant/Amersfoort-3811_CB-Blok_s-3gkguon",
    "website": "http://www.bloksrestaurant.nl"
  },
  {
    "address": "Sophialaan 55, 1075 BP Amsterdam Routeplanner",
    "country": "nl",
    "cuisine": "Frans creatief",
    "latitude": "52.35235",
    "longitude": "4.85666",
    "name": "RON Gastrobar",
    "neighborhood": "Routeplanner",
    "num_star": 1,
    "price_range": "Van \u20ac 60 tot \u20ac 60",
    "url": "https://www.viamichelin.nl/web/Restaurant/Amsterdam-1075_BP-RON_Gastrobar-3gkye1w",
    "website": "http://www.rongastrobar.nl"
  },
  {
    "address": "Rijksweg 51, 6921 AC Duiven Routeplanner",
    "country": "nl",
    "cuisine": "Frans modern",
    "latitude": "51.95016",
    "longitude": "6.02355",
    "name": "'t Raedthuys",
    "neighborhood": "Routeplanner",
    "num_star": 1,
    "price_range": "Van \u20ac 58 tot \u20ac 95",
    "url": "https://www.viamichelin.nl/web/Restaurant/Duiven-6921_AC-t_Raedthuys-3glzuq5",
    "website": "http://www.raedthuys-duiven.nl"
  },
  {
    "address": "Van Harinxmaweg 10, 9244 CJ Beetsterzwaag Routeplanner",
    "country": "nl",
    "cuisine": "Moderne keuken",
    "latitude": "53.05934",
    "longitude": "6.09123",
    "name": "De Heeren van Harinxma",
    "neighborhood": "Routeplanner",
    "num_star": 1,
    "price_range": "Van \u20ac 55 tot \u20ac 82",
    "url": "https://www.viamichelin.nl/web/Restaurant/Beetsterzwaag-9244_CJ-De_Heeren_van_Harinxma-3gm9feo",
    "website": "http://www.deheerenvanharinxma.nl"
  },
  {
    "address": "Panoramaweg 23a, 6721 MK Bennekom Routeplanner",
    "country": "nl",
    "cuisine": "Moderne keuken",
    "latitude": "52.00904",
    "longitude": "5.72242",
    "name": "Het Koetshuis",
    "neighborhood": "Routeplanner",
    "num_star": 1,
    "price_range": "Van \u20ac 40 tot \u20ac 95",
    "url": "https://www.viamichelin.nl/web/Restaurant/Bennekom-6721_MK-Het_Koetshuis-3gme35k",
    "website": "http://www.hetkoetshuis.nl"
  },
  {
    "address": "Brouwerstraat 20, 8356 DV Blokzijl Routeplanner",
    "country": "nl",
    "cuisine": "Frans creatief",
    "latitude": "52.72675",
    "longitude": "5.9606194",
    "name": "Kaatje bij de Sluis",
    "neighborhood": "Routeplanner",
    "num_star": 1,
    "price_range": "Van \u20ac 80 tot \u20ac 90",
    "url": "https://www.viamichelin.nl/web/Restaurant/Blokzijl-8356_DV-Kaatje_bij_de_Sluis-3gmuqas",
    "website": "http://www.kaatje.nl"
  },
  {
    "address": "Wolfslaardreef 100, 4803 EV Breda Routeplanner",
    "country": "nl",
    "cuisine": "Creatief",
    "latitude": "51.56075",
    "longitude": "4.80271",
    "name": "Wolfslaar",
    "neighborhood": "Routeplanner",
    "num_star": 1,
    "price_range": "Van \u20ac 50 tot \u20ac 95",
    "url": "https://www.viamichelin.nl/web/Restaurant/Breda-4803_EV-Wolfslaar-3gn7ih6",
    "website": "http://www.wolfslaar.com"
  },
  {
    "address": "Van der Mijleweg 16, 1901 KD Castricum Routeplanner",
    "country": "nl",
    "cuisine": "Moderne keuken",
    "latitude": "52.55878",
    "longitude": "4.65625",
    "name": "Apicius",
    "neighborhood": "Routeplanner",
    "num_star": 1,
    "price_range": "Van \u20ac 49 tot \u20ac 95",
    "url": "https://www.viamichelin.nl/web/Restaurant/Castricum-1901_KD-Apicius-3gnpt5j",
    "website": "http://www.apicius.nl"
  },
  {
    "address": "Burgemeester Wuiteweg 18, 9203 KK Drachten Routeplanner",
    "country": "nl",
    "cuisine": "Frans modern",
    "latitude": "53.10289",
    "longitude": "6.0985",
    "name": "Koriander",
    "neighborhood": "Routeplanner",
    "num_star": 1,
    "price_range": "Van \u20ac 40 tot \u20ac 84",
    "url": "https://www.viamichelin.nl/web/Restaurant/Drachten-9203_KK-Koriander-3goh9ns",
    "website": "http://www.dekoriander.nl"
  },
  {
    "address": "Hoofdstraat 109, 3971 KG Driebergen-Rijsenburg Routeplanner",
    "country": "nl",
    "cuisine": "Frans creatief",
    "latitude": "52.05183",
    "longitude": "5.28305",
    "name": "La Provence",
    "neighborhood": "Routeplanner",
    "num_star": 1,
    "price_range": "Van \u20ac 68 tot \u20ac 88",
    "url": "https://www.viamichelin.nl/web/Restaurant/Driebergen_Rijsenburg-3971_KG-La_Provence-3gokcuh",
    "website": "http://www.restaurantlaprovence.nl"
  },
  {
    "address": "Sumatralaan 3, 5631 AA Eindhoven Routeplanner",
    "country": "nl",
    "cuisine": "Frans modern",
    "latitude": "51.45467",
    "longitude": "5.49785",
    "name": "De Karpendonkse Hoeve",
    "neighborhood": "Routeplanner",
    "num_star": 1,
    "price_range": "Van \u20ac 55 tot \u20ac 83",
    "url": "https://www.viamichelin.nl/web/Restaurant/Eindhoven-5631_AA-De_Karpendonkse_Hoeve-3gowoim",
    "website": "http://www.karpendonksehoeve.nl"
  },
  {
    "address": "Frederiklaan 10d, 5616 NH Eindhoven Routeplanner",
    "country": "nl",
    "cuisine": "Creatief",
    "latitude": "51.44206",
    "longitude": "5.46426",
    "name": "Avant-Garde Van Groeninge",
    "neighborhood": "Routeplanner",
    "num_star": 1,
    "price_range": "Van \u20ac 75 tot \u20ac 95",
    "url": "https://www.viamichelin.nl/web/Restaurant/Eindhoven-5616_NH-Avant_Garde_Van_Groeninge-3gox2g3",
    "website": "http://www.restaurantavantgarde.nl"
  },
  {
    "address": "Markt 7, 4875 CB Etten-Leur Routeplanner",
    "country": "nl",
    "cuisine": "Moderne keuken",
    "latitude": "51.57057",
    "longitude": "4.63506",
    "name": "De Zwaan",
    "neighborhood": "Routeplanner",
    "num_star": 1,
    "price_range": "Van \u20ac 60 tot \u20ac 110",
    "url": "https://www.viamichelin.nl/web/Restaurant/Etten_Leur-4875_CB-De_Zwaan-3gpds37",
    "website": "http://www.restaurant-dezwaan.nl"
  },
  {
    "address": "Burg. van Barneveldweg 3, 9831 RD Aduard Routeplanner",
    "country": "nl",
    "cuisine": "Aziatische invloeden",
    "latitude": "53.25936",
    "longitude": "6.4580393",
    "name": "Herberg Onder de Linden",
    "neighborhood": "Routeplanner",
    "num_star": 1,
    "price_range": "Van \u20ac 55 tot \u20ac 95",
    "url": "https://www.viamichelin.nl/web/Restaurant/Aduard-9831_RD-Herberg_Onder_de_Linden-3gpzlov",
    "website": "http://www.herbergonderdelinden.com"
  },
  {
    "address": "Klokhuisplein 9, 2011 DR Haarlem Routeplanner",
    "country": "nl",
    "cuisine": "Moderne keuken",
    "latitude": "52.38075",
    "longitude": "4.6381793",
    "name": "ML",
    "neighborhood": "Routeplanner",
    "num_star": 1,
    "price_range": "Van \u20ac 40 tot \u20ac 75",
    "url": "https://www.viamichelin.nl/web/Restaurant/Haarlem-2011_DR-ML-3gqi4l2",
    "website": "http://www.restaurant-ml.nl"
  },
  {
    "address": "Jan van Goyenstraat 29, 2102 CA Heemstede Routeplanner",
    "country": "nl",
    "cuisine": "Moderne keuken",
    "latitude": "52.36016",
    "longitude": "4.62883",
    "name": "Cheval Blanc",
    "neighborhood": "Routeplanner",
    "num_star": 1,
    "price_range": "Van \u20ac 50 tot \u20ac 103",
    "url": "https://www.viamichelin.nl/web/Restaurant/Heemstede-2102_CA-Cheval_Blanc-3gqu7zy",
    "website": "http://www.cheval-blanc.nl"
  },
  {
    "address": "Vischmarkt 57 L, 3841 BE Harderwijk Routeplanner",
    "country": "nl",
    "cuisine": "Moderne keuken",
    "latitude": "52.35128",
    "longitude": "5.62098",
    "name": "Basiliek",
    "neighborhood": "Routeplanner",
    "num_star": 1,
    "price_range": "Van \u20ac 39 tot \u20ac 150",
    "url": "https://www.viamichelin.nl/web/Restaurant/Harderwijk-3841_BE-Basiliek-3gr4hwf",
    "website": "http://www.restaurantbasiliek.nl"
  },
  {
    "address": "Klein Zwitserlandlaan 5, 6866 DS Heelsum Routeplanner",
    "country": "nl",
    "cuisine": "Creatief,Frans modern",
    "latitude": "51.98506",
    "longitude": "5.75974",
    "name": "De Kromme Dissel",
    "neighborhood": "Routeplanner",
    "num_star": 1,
    "price_range": "Van \u20ac 59 tot \u20ac 104",
    "url": "https://www.viamichelin.nl/web/Restaurant/Heelsum-6866_DS-De_Kromme_Dissel-3grfpuo",
    "website": "http://www.krommedissel.nl"
  },
  {
    "address": "C.T. Storkstraat 18, 7553 AR Hengelo Routeplanner",
    "country": "nl",
    "cuisine": "Moderne keuken,Frans modern",
    "latitude": "52.25977",
    "longitude": "6.78268",
    "name": "'t Lansink",
    "neighborhood": "Routeplanner",
    "num_star": 1,
    "price_range": "Van \u20ac 60 tot \u20ac 100",
    "url": "https://www.viamichelin.nl/web/Restaurant/Hengelo-7553_AR-t_Lansink-3grxcny",
    "website": "http://www.hotellansink.com"
  },
  {
    "address": "Taalstraat 173, 5261 BD Vught Routeplanner",
    "country": "nl",
    "cuisine": "Wereldkeuken",
    "latitude": "51.66062",
    "longitude": "5.29928",
    "name": "De Heer Kocken",
    "neighborhood": "Routeplanner",
    "num_star": 1,
    "price_range": "Van \u20ac 45 tot \u20ac 77",
    "url": "https://www.viamichelin.nl/web/Restaurant/Vught-5261_BD-De_Heer_Kocken-3gsblur",
    "website": "http://www.deheerkocken.nl"
  },
  {
    "address": "Holterbergweg 7, 7451 JL Holten Routeplanner",
    "country": "nl",
    "cuisine": "Moderne keuken,Frans modern",
    "latitude": "52.29653",
    "longitude": "6.42008",
    "name": "De Swarte Ruijter",
    "neighborhood": "Routeplanner",
    "num_star": 1,
    "price_range": "Van \u20ac 40 tot \u20ac 85",
    "url": "https://www.viamichelin.nl/web/Restaurant/Holten-7451_JL-De_Swarte_Ruijter-3gssdj4",
    "website": "http://www.swarteruijter.nl"
  },
  {
    "address": "Heemsteedseweg 20, 3992 LS Houten Routeplanner",
    "country": "nl",
    "cuisine": "Moderne keuken",
    "latitude": "52.03297",
    "longitude": "5.12523",
    "name": "Kasteel Heemstede",
    "neighborhood": "Routeplanner",
    "num_star": 1,
    "price_range": "Van \u20ac 68 tot \u20ac 88",
    "url": "https://www.viamichelin.nl/web/Restaurant/Houten-3992_LS-Kasteel_Heemstede-3gt1jt3",
    "website": "http://www.restaurant-kasteelheemstede.nl"
  },
  {
    "address": "Nieuwstraat 8, 4576 AL Koewacht Routeplanner",
    "country": "nl",
    "cuisine": "Moderne keuken",
    "latitude": "51.22614",
    "longitude": "3.97621",
    "name": "'t Vlasbloemeken",
    "neighborhood": "Routeplanner",
    "num_star": 1,
    "price_range": "Van \u20ac 63 tot \u20ac 118",
    "url": "https://www.viamichelin.nl/web/Restaurant/Koewacht-4576_AL-t_Vlasbloemeken-3gtg756",
    "website": "http://www.vlasbloemeken.com"
  },
  {
    "address": "Kerkstraat 1, 3632 EL Loenen aan de Vecht Routeplanner",
    "country": "nl",
    "cuisine": "Frans modern",
    "latitude": "52.20903",
    "longitude": "5.02352",
    "name": "Tante Koosje",
    "neighborhood": "Routeplanner",
    "num_star": 1,
    "price_range": "Van \u20ac 58 tot \u20ac 92",
    "url": "https://www.viamichelin.nl/web/Restaurant/Loenen_aan_de_Vecht-3632_EL-Tante_Koosje-3gu5po2",
    "website": "http://www.tante-koosje.nl"
  },
  {
    "address": "Havenstraat 27, 6051 CS Maasbracht Routeplanner",
    "country": "nl",
    "cuisine": "Frans creatief",
    "latitude": "51.14532",
    "longitude": "5.88514",
    "name": "Da Vinci",
    "neighborhood": "Routeplanner",
    "num_star": 1,
    "price_range": "Van \u20ac 80 tot \u20ac 195",
    "url": "https://www.viamichelin.nl/web/Restaurant/Maasbracht-6051_CS-Da_Vinci-3gudyui",
    "website": "http://www.restaurantdavinci.nl"
  },
  {
    "address": "St-Bernardusstraat 16, 6211 HL Maastricht Routeplanner",
    "country": "nl",
    "cuisine": "Frans modern",
    "latitude": "50.84662",
    "longitude": "5.69418",
    "name": "Tout \u00e0 Fait",
    "neighborhood": "Routeplanner",
    "num_star": 1,
    "price_range": "Van \u20ac 59 tot \u20ac 99",
    "url": "https://www.viamichelin.nl/web/Restaurant/Maastricht-6211_HL-Tout_a_Fait-3gukiwp",
    "website": "http://www.toutafait.nl"
  },
  {
    "address": "Cannerweg 800, 6213 ND Maastricht Routeplanner",
    "country": "nl",
    "cuisine": "Klassieke keuken",
    "latitude": "50.81875",
    "longitude": "5.66774",
    "name": "Ch\u00e2teau Neercanne",
    "neighborhood": "Routeplanner",
    "num_star": 1,
    "price_range": "Van \u20ac 80 tot \u20ac 113",
    "url": "https://www.viamichelin.nl/web/Restaurant/Maastricht-6213_ND-Chateau_Neercanne-3gv5p9t",
    "website": "http://www.neercanne.nl"
  },
  {
    "address": "Noordeinde 43, 1141 AG Monnickendam Routeplanner",
    "country": "nl",
    "cuisine": "Moderne keuken",
    "latitude": "52.46097",
    "longitude": "5.03526",
    "name": "Posthoorn",
    "neighborhood": "Routeplanner",
    "num_star": 1,
    "price_range": "Van \u20ac 59 tot \u20ac 89",
    "url": "https://www.viamichelin.nl/web/Restaurant/Monnickendam-1141_AG-Posthoorn-3gvuida",
    "website": "http://www.posthoorn.eu"
  },
  {
    "address": "Raadhuisstraat 17, 3461 CW Linschoten Routeplanner",
    "country": "nl",
    "cuisine": "Moderne keuken",
    "latitude": "52.06214",
    "longitude": "4.9139",
    "name": "De Burgemeester",
    "neighborhood": "Routeplanner",
    "num_star": 1,
    "price_range": "Van \u20ac 65 tot \u20ac 95",
    "url": "https://www.viamichelin.nl/web/Restaurant/Linschoten-3461_CW-De_Burgemeester-3gvzaxf",
    "website": "http://www.deburgemeester.nl"
  },
  {
    "address": "Botersloot 1, 4225 PR Noordeloos Routeplanner",
    "country": "nl",
    "cuisine": "Creatief",
    "latitude": "51.90418",
    "longitude": "4.94418",
    "name": "De Gieser Wildeman",
    "neighborhood": "Routeplanner",
    "num_star": 1,
    "price_range": "Van \u20ac 55 tot \u20ac 117",
    "url": "https://www.viamichelin.nl/web/Restaurant/Noordeloos-4225_PR-De_Gieser_Wildeman-3gwlvmk",
    "website": "http://www.degieserwildeman.nl"
  },
  {
    "address": "Koningin Astrid bd 5, 2202 BK Noordwijk aan Zee Routeplanner",
    "country": "nl",
    "cuisine": "Moderne keuken",
    "latitude": "52.23936",
    "longitude": "4.42582",
    "name": "Latour",
    "neighborhood": "Routeplanner",
    "num_star": 1,
    "price_range": "Van \u20ac 60 tot \u20ac 107",
    "url": "https://www.viamichelin.nl/web/Restaurant/Noordwijk_aan_Zee-2202_BK-Latour-3gwohub",
    "website": "http://www.restaurantlatour.nl"
  },
  {
    "address": "Oostwal 175, 5341 KM Oss Routeplanner",
    "country": "nl",
    "cuisine": "Frans creatief",
    "latitude": "51.76852",
    "longitude": "5.527869",
    "name": "Cordial",
    "neighborhood": "Routeplanner",
    "num_star": 1,
    "price_range": "Van \u20ac 55 tot \u20ac 95",
    "url": "https://www.viamichelin.nl/web/Restaurant/Oss-5341_KM-Cordial-3gxgy0f",
    "website": "http://www.restaurantcordial.nl"
  },
  {
    "address": "ECI 17, 6041 MA Roermond Routeplanner",
    "country": "nl",
    "cuisine": "Creatief",
    "latitude": "51.18927",
    "longitude": "5.98073",
    "name": "ONE",
    "neighborhood": "Routeplanner",
    "num_star": 1,
    "price_range": "Van \u20ac 48 tot \u20ac 108",
    "url": "https://www.viamichelin.nl/web/Restaurant/Roermond-6041_MA-ONE-3gy762q",
    "website": "http://www.restaurantone.nl"
  },
  {
    "address": "Duin en Kruidbergweg 60, 2071 LE Santpoort Routeplanner",
    "country": "nl",
    "cuisine": "Creatief",
    "latitude": "52.4352",
    "longitude": "4.62865",
    "name": "De Vrienden van Jacob",
    "neighborhood": "Routeplanner",
    "num_star": 1,
    "price_range": "Van \u20ac 62 tot \u20ac 120",
    "url": "https://www.viamichelin.nl/web/Restaurant/Santpoort-2071_LE-De_Vrienden_van_Jacob-3gysg8j",
    "website": "http://www.devriendenvanjacob.nl"
  },
  {
    "address": "Heuvel 23, 5492 AC Sint-Oedenrode Routeplanner",
    "country": "nl",
    "cuisine": "Frans creatief",
    "latitude": "51.56285",
    "longitude": "5.45962",
    "name": "Wollerich",
    "neighborhood": "Routeplanner",
    "num_star": 1,
    "price_range": "Van \u20ac 48 tot \u20ac 86",
    "url": "https://www.viamichelin.nl/web/Restaurant/Sint_Oedenrode-5492_AC-Wollerich-3gyzljz",
    "website": "http://www.wollerich.nl"
  },
  {
    "address": "Kaai 11, 4524 CL Sluis Routeplanner",
    "country": "nl",
    "cuisine": "Moderne keuken",
    "latitude": "51.30865",
    "longitude": "3.38444",
    "name": "La Trinit\u00e9",
    "neighborhood": "Routeplanner",
    "num_star": 1,
    "price_range": "Van \u20ac 52 tot \u20ac 101",
    "url": "https://www.viamichelin.nl/web/Restaurant/Sluis-4524_CL-La_Trinite-3gz6ja9",
    "website": "http://www.latrinite.nl"
  },
  {
    "address": "Dalstraat 2, 6367 JS Ubachsberg Routeplanner",
    "country": "nl",
    "cuisine": "Creatief",
    "latitude": "50.85252",
    "longitude": "5.9533",
    "name": "De Leuf",
    "neighborhood": "Routeplanner",
    "num_star": 1,
    "price_range": "Van \u20ac 70 tot \u20ac 115",
    "url": "https://www.viamichelin.nl/web/Restaurant/Ubachsberg-6367_JS-De_Leuf-3gzy5ga",
    "website": "http://www.deleuf.nl"
  },
  {
    "address": "St. Urbanusweg 11, 5914 CA Venlo Routeplanner",
    "country": "nl",
    "cuisine": "Frans modern",
    "latitude": "51.38544",
    "longitude": "6.16745",
    "name": "Valuas",
    "neighborhood": "Routeplanner",
    "num_star": 1,
    "price_range": "Van \u20ac 40 tot \u20ac 144",
    "url": "https://www.viamichelin.nl/web/Restaurant/Venlo-5914_CA-Valuas-3h0en9t",
    "website": "http://www.valuas-hr.nl"
  },
  {
    "address": "Maashoek 2a, 5935 BJ Tegelen Routeplanner",
    "country": "nl",
    "cuisine": "Frans modern",
    "latitude": "51.33323",
    "longitude": "6.12224",
    "name": "Aubergine",
    "neighborhood": "Routeplanner",
    "num_star": 1,
    "price_range": "Van \u20ac 58 tot \u20ac 110",
    "url": "https://www.viamichelin.nl/web/Restaurant/Tegelen-5935_BJ-Aubergine-3h0jgkl",
    "website": "http://www.restaurantaubergine.nl"
  },
  {
    "address": "Duinkerken 3, 3633 EM Vreeland Routeplanner",
    "country": "nl",
    "cuisine": "Moderne keuken",
    "latitude": "52.22973",
    "longitude": "5.03257",
    "name": "De Nederlanden",
    "neighborhood": "Routeplanner",
    "num_star": 1,
    "price_range": "Van \u20ac 68 tot \u20ac 98",
    "url": "https://www.viamichelin.nl/web/Restaurant/Vreeland-3633_EM-De_Nederlanden-3h0sodv",
    "website": "http://www.nederlanden.nl"
  },
  {
    "address": "Herenstraat 34, 1797 AJ Den Hoorn Routeplanner",
    "country": "nl",
    "cuisine": "Klassieke keuken",
    "latitude": "53.02479",
    "longitude": "4.74973",
    "name": "Bij Jef",
    "neighborhood": "Routeplanner",
    "num_star": 1,
    "price_range": "Van \u20ac 60 tot \u20ac 100",
    "url": "https://www.viamichelin.nl/web/Restaurant/Den_Hoorn-1797_AJ-Bij_Jef-3h13av5",
    "website": "http://www.bijjef.nl"
  },
  {
    "address": "Dorpsstraat 5a, 2361 AK Warmond Routeplanner",
    "country": "nl",
    "cuisine": "Marktkeuken,Frans modern",
    "latitude": "52.19559",
    "longitude": "4.50254",
    "name": "De Moerbei",
    "neighborhood": "Routeplanner",
    "num_star": 1,
    "price_range": "Van \u20ac 58 tot \u20ac 95",
    "url": "https://www.viamichelin.nl/web/Restaurant/Warmond-2361_AK-De_Moerbei-3h1jxyc",
    "website": "http://www.demoerbeiwarmond.nl"
  },
  {
    "address": "Hoogstraat 8, 6001 EV Weert Routeplanner",
    "country": "nl",
    "cuisine": "Frans creatief",
    "latitude": "51.25468",
    "longitude": "5.70752",
    "name": "Bretelli",
    "neighborhood": "Routeplanner",
    "num_star": 1,
    "price_range": "Van \u20ac 50 tot \u20ac 100",
    "url": "https://www.viamichelin.nl/web/Restaurant/Weert-6001_EV-Bretelli-3h1kqsl",
    "website": "http://www.bretelli.nl"
  },
  {
    "address": "Grotestraat 11, 5855 AK Well Routeplanner",
    "country": "nl",
    "cuisine": "Regionaal",
    "latitude": "51.54928",
    "longitude": "6.09694",
    "name": "Brienen aan de Maas",
    "neighborhood": "Routeplanner",
    "num_star": 1,
    "price_range": "Van \u20ac 43 tot \u20ac 85",
    "url": "https://www.viamichelin.nl/web/Restaurant/Well-5855_AK-Brienen_aan_de_Maas-3h1q2yh",
    "website": "http://www.restaurantbrienenaandemaas.nl"
  },
  {
    "address": "Katseveerweg 2, 4475 PB Wilhelminadorp Routeplanner",
    "country": "nl",
    "cuisine": "Moderne keuken",
    "latitude": "51.53989",
    "longitude": "3.87036",
    "name": "Katseveer",
    "neighborhood": "Routeplanner",
    "num_star": 1,
    "price_range": "Van \u20ac 60 tot \u20ac 90",
    "url": "https://www.viamichelin.nl/web/Restaurant/Wilhelminadorp-4475_PB-Katseveer-3h1y49m",
    "website": "http://www.katseveer.nl"
  },
  {
    "address": "Markt 1, 4724 BK Wouw Routeplanner",
    "country": "nl",
    "cuisine": "Frans modern",
    "latitude": "51.52242",
    "longitude": "4.38809",
    "name": "Mijn Keuken",
    "neighborhood": "Routeplanner",
    "num_star": 1,
    "price_range": "Van \u20ac 70 tot \u20ac 125",
    "url": "https://www.viamichelin.nl/web/Restaurant/Wouw-4724_BK-Mijn_Keuken-3h27zfe",
    "website": "http://www.mijnkeuken.com"
  },
  {
    "address": "Vossenlaan 28, 3735 KN Bosch en Duin Routeplanner",
    "country": "nl",
    "cuisine": "Creatief",
    "latitude": "52.124153",
    "longitude": "5.246112",
    "name": "De Hoefslag",
    "neighborhood": "Routeplanner",
    "num_star": 1,
    "price_range": "Van \u20ac 62 tot \u20ac 128",
    "url": "https://www.viamichelin.nl/web/Restaurant/Bosch_en_Duin-3735_KN-De_Hoefslag-3h2k9mw",
    "website": "http://www.hoefslag.nl"
  },
  {
    "address": "Stationsweg 41, 9471 GK Zuidlaren Routeplanner",
    "country": "nl",
    "cuisine": "Frans modern",
    "latitude": "53.09228",
    "longitude": "6.68169",
    "name": "De Vlindertuin",
    "neighborhood": "Routeplanner",
    "num_star": 1,
    "price_range": "Van \u20ac 65 tot \u20ac 85",
    "url": "https://www.viamichelin.nl/web/Restaurant/Zuidlaren-9471_GK-De_Vlindertuin-3h2wb3y",
    "website": "http://www.restaurant-devlindertuin.nl"
  },
  {
    "address": "'s Gravenhof 5, 7201 DN Zutphen Routeplanner",
    "country": "nl",
    "cuisine": "Moderne keuken",
    "latitude": "52.13936",
    "longitude": "6.19462",
    "name": "Schultenhues - Peter Gast Gastrobar",
    "neighborhood": "Routeplanner",
    "num_star": 1,
    "price_range": "Van \u20ac 41 tot \u20ac 99",
    "url": "https://www.viamichelin.nl/web/Restaurant/Zutphen-7201_DN-Schultenhues_Peter_Gast_Gastrobar-3h301d6",
    "website": "http://www.schultenhues.nl"
  },
  {
    "address": "Ferdinand Bolstraat 333, 1072 LH Amsterdam Routeplanner",
    "country": "nl",
    "cuisine": "Teppanyaki,Japans",
    "latitude": "52.35045",
    "longitude": "4.89149",
    "name": "Sazanka",
    "neighborhood": "Routeplanner",
    "num_star": 1,
    "price_range": "Van \u20ac 52 tot \u20ac 115",
    "url": "https://www.viamichelin.nl/web/Restaurant/Amsterdam-1072_LH-Sazanka-3h401yg",
    "website": "http://www.okura.nl"
  },
  {
    "address": "Boulevard de Wielingen 49, 4506 JK Cadzand-Bad Routeplanner",
    "country": "nl",
    "cuisine": "Creatief",
    "latitude": "51.37835",
    "longitude": "3.3869498",
    "name": "Pure C",
    "neighborhood": "Routeplanner",
    "num_star": 1,
    "price_range": "Van \u20ac 83 tot \u20ac 293",
    "url": "https://www.viamichelin.nl/web/Restaurant/Cadzand_Bad-4506_JK-Pure_C-3h5s6r7",
    "website": "http://www.pure-c.nl"
  },
  {
    "address": "Beuningerstraat 6, 7587 LD De Lutte Routeplanner",
    "country": "nl",
    "cuisine": "Moderne keuken,Frans modern",
    "latitude": "52.32129",
    "longitude": "7.00761",
    "name": "De Bloemenbeek",
    "neighborhood": "Routeplanner",
    "num_star": 1,
    "price_range": "Van \u20ac 48 tot \u20ac 105",
    "url": "https://www.viamichelin.nl/web/Restaurant/De_Lutte-7587_LD-De_Bloemenbeek-3h9kzk8",
    "website": "http://www.bloemenbeek.nl"
  },
  {
    "address": "Duinweg 15, 1871 AC Schoorl Routeplanner",
    "country": "nl",
    "cuisine": "Moderne keuken",
    "latitude": "52.69858",
    "longitude": "4.69446",
    "name": "Merlet",
    "neighborhood": "Routeplanner",
    "num_star": 1,
    "price_range": "Van \u20ac 58 tot \u20ac 110",
    "url": "https://www.viamichelin.nl/web/Restaurant/Schoorl-1871_AC-Merlet-3hcs5ds",
    "website": "http://www.merlet.nl"
  },
  {
    "address": "Jhr. Dr. C.J. Sandbergweg 82, 3852 PV Leuvenum Routeplanner",
    "country": "nl",
    "cuisine": "Moderne keuken",
    "latitude": "52.29582",
    "longitude": "5.72214",
    "name": "Het Roode Koper",
    "neighborhood": "Routeplanner",
    "num_star": 1,
    "price_range": "Van \u20ac 68 tot \u20ac 75",
    "url": "https://www.viamichelin.nl/web/Restaurant/Leuvenum-3852_PV-Het_Roode_Koper-3hgfesg",
    "website": "http://www.roodekoper.nl"
  },
  {
    "address": "Kapelstraat 16, 1404 HX Bussum Routeplanner",
    "country": "nl",
    "cuisine": "Marktkeuken,Moderne keuken",
    "latitude": "52.27463",
    "longitude": "5.16449",
    "name": "Soign\u00e9",
    "neighborhood": "Routeplanner",
    "num_star": 1,
    "price_range": "Van \u20ac 58 tot \u20ac 75",
    "url": "https://www.viamichelin.nl/web/Restaurant/Bussum-1404_HX-Soigne-3hghpkb",
    "website": "http://www.restaurantsoigne.nl"
  },
  {
    "address": "Delftweg 58a, 2289 AL Rijswijk Routeplanner",
    "country": "nl",
    "cuisine": "Creatief",
    "latitude": "52.04325",
    "longitude": "4.34448",
    "name": "Niven",
    "neighborhood": "Routeplanner",
    "num_star": 1,
    "price_range": "Van \u20ac 55 tot \u20ac 100",
    "url": "https://www.viamichelin.nl/web/Restaurant/Rijswijk-2289_AL-Niven-3hi5awz",
    "website": "http://www.restaurantniven.nl"
  },
  {
    "address": "Rijksstraatweg 119, 3632 AB Loenen aan de Vecht Routeplanner",
    "country": "nl",
    "cuisine": "Creatief",
    "latitude": "52.20977",
    "longitude": "5.02088",
    "name": "'t Amsterdammertje",
    "neighborhood": "Routeplanner",
    "num_star": 1,
    "price_range": "Van \u20ac 45 tot \u20ac 82",
    "url": "https://www.viamichelin.nl/web/Restaurant/Loenen_aan_de_Vecht-3632_AB-t_Amsterdammertje-3hiarbi",
    "website": "http://www.restaurantamsterdammertje.nl"
  },
  {
    "address": "Frans Halsstraat 26H, 1072 BR Amsterdam Routeplanner",
    "country": "nl",
    "cuisine": "Marktkeuken",
    "latitude": "52.3577",
    "longitude": "4.88883",
    "name": "Le Restaurant",
    "neighborhood": "Routeplanner",
    "num_star": 1,
    "price_range": "Van \u20ac 60 tot \u20ac 88",
    "url": "https://www.viamichelin.nl/web/Restaurant/Amsterdam-1072_BR-Le_Restaurant-3hikvvx",
    "website": "http://www.lerestaurant.nl"
  },
  {
    "address": "Heliconweg 52, 8914 AT Leeuwarden Routeplanner",
    "country": "nl",
    "cuisine": "Moderne keuken",
    "latitude": "53.19908",
    "longitude": "5.7726693",
    "name": "\u00c9lev\u00e9",
    "neighborhood": "Routeplanner",
    "num_star": 1,
    "price_range": "Van \u20ac 50 tot \u20ac 80",
    "url": "https://www.viamichelin.nl/web/Restaurant/Leeuwarden-8914_AT-Eleve-3hl8lmb",
    "website": "http://www.eleve.nl"
  },
  {
    "address": "Badweg 4, 7102 EG Winterswijk Routeplanner",
    "country": "nl",
    "cuisine": "Moderne keuken",
    "latitude": "51.95796",
    "longitude": "6.72441",
    "name": "Strandlodge",
    "neighborhood": "Routeplanner",
    "num_star": 1,
    "price_range": "Van \u20ac 31 tot \u20ac 150",
    "url": "https://www.viamichelin.nl/web/Restaurant/Winterswijk-7102_EG-Strandlodge-3xl353ir",
    "website": "http://www.slww.nl"
  },
  {
    "address": "Wilhelminaplein 1, 5211 CG 's-Hertogenbosch Routeplanner",
    "country": "nl",
    "cuisine": "Frans modern",
    "latitude": "51.6832",
    "longitude": "5.29505",
    "name": "Noble",
    "neighborhood": "Routeplanner",
    "num_star": 1,
    "price_range": "Van \u20ac 36 tot \u20ac 75",
    "url": "https://www.viamichelin.nl/web/Restaurant/s_Hertogenbosch-5211_CG-Noble-3xl6fsq2",
    "website": "http://www.restaurantnoble.nl"
  },
  {
    "address": "Kaai 5, 4511 RC Breskens Routeplanner",
    "country": "nl",
    "cuisine": "Moderne keuken",
    "latitude": "51.39549",
    "longitude": "3.56776",
    "name": "Spetters",
    "neighborhood": "Routeplanner",
    "num_star": 1,
    "price_range": "Van \u20ac 59 tot \u20ac 151",
    "url": "https://www.viamichelin.nl/web/Restaurant/Breskens-4511_RC-Spetters-8kbf6rt",
    "website": "http://www.restaurantspetters.nl"
  },
  {
    "address": "Dorpsstraat 3, 2902 BC Capelle aan den IJssel Routeplanner",
    "country": "nl",
    "cuisine": "Creatief",
    "latitude": "51.92177",
    "longitude": "4.58416",
    "name": "Perceel",
    "neighborhood": "Routeplanner",
    "num_star": 1,
    "price_range": "Van \u20ac 60 tot \u20ac 93",
    "url": "https://www.viamichelin.nl/web/Restaurant/Capelle_aan_den_IJssel-2902_BC-Perceel-8kppxkj",
    "website": "http://www.restaurantperceel.nl"
  },
  {
    "address": "George Gershwinlaan 30, 1082 MT Amsterdam Routeplanner",
    "country": "nl",
    "cuisine": "Creatief",
    "latitude": "52.3358",
    "longitude": "4.87246",
    "name": "Bolenius",
    "neighborhood": "Routeplanner",
    "num_star": 1,
    "price_range": "Van \u20ac 66 tot \u20ac 105",
    "url": "https://www.viamichelin.nl/web/Restaurant/Amsterdam-1082_MT-Bolenius-8kq2mmx",
    "website": "http://www.bolenius-restaurant.nl"
  },
  {
    "address": "Jeroen Boschplein 6, 5211 ML 's-Hertogenbosch Routeplanner",
    "country": "nl",
    "cuisine": "Creatief",
    "latitude": "51.6883",
    "longitude": "5.31238",
    "name": "Sense",
    "neighborhood": "Routeplanner",
    "num_star": 1,
    "price_range": "Van \u20ac 48 tot \u20ac 88",
    "url": "https://www.viamichelin.nl/web/Restaurant/s_Hertogenbosch-5211_ML-Sense-8kthcji",
    "website": "http://www.senserestaurant.nl"
  },
  {
    "address": "Kleine Berg 10, 5611 JV Eindhoven Routeplanner",
    "country": "nl",
    "cuisine": "Frans",
    "latitude": "51.43771",
    "longitude": "5.47548",
    "name": "Wiesen",
    "neighborhood": "Routeplanner",
    "num_star": 1,
    "price_range": "Van \u20ac 40 tot \u20ac 88",
    "url": "https://www.viamichelin.nl/web/Restaurant/Eindhoven-5611_JV-Wiesen-9ihozmjs",
    "website": "http://www.wiesen-restaurant.nl"
  },
  {
    "address": "Bleekweg 7, 5611 EZ Eindhoven Routeplanner",
    "country": "nl",
    "cuisine": "Creatief",
    "latitude": "51.43551",
    "longitude": "5.48425",
    "name": "Zarzo",
    "neighborhood": "Routeplanner",
    "num_star": 1,
    "price_range": "Van \u20ac 42 tot \u20ac 82",
    "url": "https://www.viamichelin.nl/web/Restaurant/Eindhoven-5611_EZ-Zarzo-9ihttm3d",
    "website": "http://www.zarzo.nl"
  },
  {
    "address": "Ceintuurbaan 342, 1072 GP Amsterdam Routeplanner",
    "country": "nl",
    "cuisine": "Moderne keuken",
    "latitude": "52.35313",
    "longitude": "4.89405",
    "name": "Sinne",
    "neighborhood": "Routeplanner",
    "num_star": 1,
    "price_range": "Van \u20ac 39 tot \u20ac 87",
    "url": "https://www.viamichelin.nl/web/Restaurant/Amsterdam-1072_GP-Sinne-9ihu1id8",
    "website": "http://www.restaurantsinne.nl"
  },
  {
    "address": "Spaarne 96, 2011 CL Haarlem Routeplanner",
    "country": "nl",
    "cuisine": "Moderne keuken",
    "latitude": "52.378662",
    "longitude": "4.637757",
    "name": "Ratatouille Food & Wine",
    "neighborhood": "Routeplanner",
    "num_star": 1,
    "price_range": "Van \u20ac 39 tot \u20ac 99",
    "url": "https://www.viamichelin.nl/web/Restaurant/Haarlem-2011_CL-Ratatouille_Food_Wine-9ihuj0wo",
    "website": "http://www.ratatouillefoodandwine.nl"
  },
  {
    "address": "Katshoek 41, 3032 AE Rotterdam Routeplanner",
    "country": "nl",
    "cuisine": "Creatief",
    "latitude": "51.90185",
    "longitude": "4.461715",
    "name": "FG Food Labs",
    "neighborhood": "Routeplanner",
    "num_star": 1,
    "price_range": "Van \u20ac 55 tot \u20ac 120",
    "url": "https://www.viamichelin.nl/web/Restaurant/Rotterdam-3032_AE-FG_Food_Labs-9ihuv3qv",
    "website": "http://www.fgfoodlabs.nl"
  },
  {
    "address": "Laanderstraat 27, 6411 VA Heerlen Routeplanner",
    "country": "nl",
    "cuisine": "Frans modern",
    "latitude": "50.88775",
    "longitude": "5.97342",
    "name": "Cucina del Mondo",
    "neighborhood": "Routeplanner",
    "num_star": 1,
    "price_range": "Van \u20ac 29 tot \u20ac 76",
    "url": "https://www.viamichelin.nl/web/Restaurant/Heerlen-6411_VA-Cucina_del_Mondo-9ihv120j",
    "website": "http://www.cucinadelmondo.nl"
  },
  {
    "address": "Oude Doelenkade 7, 1621 BH Hoorn Routeplanner",
    "country": "nl",
    "cuisine": "Frans modern,Vis en zeevruchten",
    "latitude": "52.638332",
    "longitude": "5.063411",
    "name": "Lucas Rive",
    "neighborhood": "Routeplanner",
    "num_star": 1,
    "price_range": "Van \u20ac 43 tot \u20ac 85",
    "url": "https://www.viamichelin.nl/web/Restaurant/Hoorn-1621_BH-Lucas_Rive-q5mmj6t",
    "website": "http://www.restaurantlucasrive.nl"
  },
  {
    "address": "Gelderseplein 49, 3011 WZ Rotterdam Routeplanner",
    "country": "nl",
    "cuisine": "Frans modern",
    "latitude": "51.9192",
    "longitude": "4.490264",
    "name": "Fitzgerald",
    "neighborhood": "Routeplanner",
    "num_star": 1,
    "price_range": "Van \u20ac 43 tot \u20ac 100",
    "url": "https://www.viamichelin.nl/web/Restaurant/Rotterdam-3011_WZ-Fitzgerald-t60y9w4o",
    "website": "http://www.restaurantfitzgerald.nl"
  },
  {
    "address": "Coolsingel 5, 3012 AA Rotterdam Routeplanner",
    "country": "nl",
    "cuisine": "Frans creatief",
    "latitude": "51.923744",
    "longitude": "4.477902",
    "name": "Joelia",
    "neighborhood": "Routeplanner",
    "num_star": 1,
    "price_range": "Van \u20ac 63 tot \u20ac 165",
    "url": "https://www.viamichelin.nl/web/Restaurant/Rotterdam-3012_AA-Joelia-t614kbbx",
    "website": "http://www.joelia.eu"
  },
  {
    "address": "Dam 9, 1012 JS Amsterdam Routeplanner",
    "country": "nl",
    "cuisine": "Moderne keuken",
    "latitude": "52.372726",
    "longitude": "4.894229",
    "name": "The White Room",
    "neighborhood": "Routeplanner",
    "num_star": 1,
    "price_range": "Van \u20ac 65 tot \u20ac 105",
    "url": "https://www.viamichelin.nl/web/Restaurant/Amsterdam-1012_JS-The_White_Room-t61ib9zb",
    "website": "http://www.restaurantthewhiteroom.com"
  },
  {
    "address": "Spuistraat 172, 1012 VT Amsterdam Routeplanner",
    "country": "nl",
    "cuisine": "Mediterraan",
    "latitude": "52.37283",
    "longitude": "4.8895626",
    "name": "The Duchess",
    "neighborhood": "Routeplanner",
    "num_star": 1,
    "price_range": "Van \u20ac 60 tot \u20ac 85",
    "url": "https://www.viamichelin.nl/web/Restaurant/Amsterdam-1012_VT-The_Duchess-t61m8ngr",
    "website": "http://www.the-duchess.com"
  },
  {
    "address": "Museumstraat 2, 1077 XX Amsterdam Routeplanner",
    "country": "nl",
    "cuisine": "Frans modern",
    "latitude": "52.359566",
    "longitude": "4.884371",
    "name": "RIJKS\u00ae",
    "neighborhood": "Routeplanner",
    "num_star": 1,
    "price_range": "Van \u20ac 42 tot \u20ac 70",
    "url": "https://www.viamichelin.nl/web/Restaurant/Amsterdam-1077_XX-RIJKSR-t61ndz30",
    "website": "http://www.rijksrestaurant.nl"
  },
  {
    "address": "IJdok 185, 1013 MM Amsterdam Routeplanner",
    "country": "nl",
    "cuisine": "Frans creatief",
    "latitude": "52.383797",
    "longitude": "4.895512",
    "name": "MOS",
    "neighborhood": "Routeplanner",
    "num_star": 1,
    "price_range": "Van \u20ac 55 tot \u20ac 82",
    "url": "https://www.viamichelin.nl/web/Restaurant/Amsterdam-1013_MM-MOS-zmkiy9pa",
    "website": "http://www.mosamsterdam.nl"
  },
  {
    "address": "Havenhoofd 2, 4797 SR Willemstad Routeplanner",
    "country": "nl",
    "cuisine": "Frans modern",
    "latitude": "51.696117",
    "longitude": "4.443638",
    "name": "Vista restaurant & food bar",
    "neighborhood": "Routeplanner",
    "num_star": 1,
    "price_range": "Van \u20ac 36 tot \u20ac 75",
    "url": "https://www.viamichelin.nl/web/Restaurant/Willemstad-4797_SR-Vista_restaurant_food_bar-zmkjm9qz",
    "website": "http://www.vistawillemstad.nl"
  },
  {
    "address": "Herengracht 542, 1017 CG Amsterdam Routeplanner",
    "country": "nl",
    "cuisine": "Creatief",
    "latitude": "52.36478",
    "longitude": "4.89701",
    "name": "Librije's Zusje Amsterdam",
    "neighborhood": "Routeplanner",
    "num_star": 2,
    "price_range": "Van \u20ac 80 tot \u20ac 150",
    "url": "https://www.viamichelin.nl/web/Restaurant/Amsterdam-1017_CG-Librije_s_Zusje_Amsterdam-9ihujnbv",
    "website": "http://www.placeshilton.com/wa-amsterdam"
  },
  {
    "address": "Heuvellaan 21, 3016 GL Rotterdam Routeplanner",
    "country": "nl",
    "cuisine": "Creatief",
    "latitude": "51.90389",
    "longitude": "4.47122",
    "name": "Parkheuvel",
    "neighborhood": "Routeplanner",
    "num_star": 2,
    "price_range": "Van \u20ac 80 tot \u20ac 140",
    "url": "https://www.viamichelin.nl/web/Restaurant/Rotterdam-3016_GL-Parkheuvel-3gg2mci",
    "website": "http://www.parkheuvel.nl"
  },
  {
    "address": "Ferdinand Bolstraat 333, 1072 LH Amsterdam Routeplanner",
    "country": "nl",
    "cuisine": "Creatief",
    "latitude": "52.35045",
    "longitude": "4.89149",
    "name": "Ciel Bleu",
    "neighborhood": "Routeplanner",
    "num_star": 2,
    "price_range": "Van \u20ac 135 tot \u20ac 194",
    "url": "https://www.viamichelin.nl/web/Restaurant/Amsterdam-1072_LH-Ciel_Bleu-3gibnp2",
    "website": "http://www.cielbleu.nl"
  },
  {
    "address": "Handweg 1, 1185 TS Amstelveen Routeplanner",
    "country": "nl",
    "cuisine": "Creatief",
    "latitude": "52.29861",
    "longitude": "4.84543",
    "name": "Aan de Poel",
    "neighborhood": "Routeplanner",
    "num_star": 2,
    "price_range": "Van \u20ac 68 tot \u20ac 128",
    "url": "https://www.viamichelin.nl/web/Restaurant/Amstelveen-1185_TS-Aan_de_Poel-3gle2vi",
    "website": "http://www.aandepoel.nl"
  },
  {
    "address": "Slijkplaat 6, 4513 KK Hoofdplaat Routeplanner",
    "country": "nl",
    "cuisine": "Moderne keuken",
    "latitude": "51.3769",
    "longitude": "3.60307",
    "name": "De Kromme Watergang",
    "neighborhood": "Routeplanner",
    "num_star": 2,
    "price_range": "Van \u20ac 91 tot \u20ac 184",
    "url": "https://www.viamichelin.nl/web/Restaurant/Hoofdplaat-4513_KK-De_Kromme_Watergang-3gnjdyc",
    "website": "http://www.krommewatergang.nl"
  },
  {
    "address": "Beulakerweg 77, 8355 AC Giethoorn Routeplanner",
    "country": "nl",
    "cuisine": "Creatief",
    "latitude": "52.74574",
    "longitude": "6.08019",
    "name": "De Lindenhof",
    "neighborhood": "Routeplanner",
    "num_star": 2,
    "price_range": "Van \u20ac 95 tot \u20ac 154",
    "url": "https://www.viamichelin.nl/web/Restaurant/Giethoorn-8355_AC-De_Lindenhof-3gph10o",
    "website": "http://www.restaurantdelindenhof.nl"
  },
  {
    "address": "Zeeweg 53, 2051 EB Overveen Routeplanner",
    "country": "nl",
    "cuisine": "Moderne keuken",
    "latitude": "52.39688",
    "longitude": "4.57934",
    "name": "De Bokkedoorns",
    "neighborhood": "Routeplanner",
    "num_star": 2,
    "price_range": "Van \u20ac 72 tot \u20ac 130",
    "url": "https://www.viamichelin.nl/web/Restaurant/Overveen-2051_EB-De_Bokkedoorns-3gqz0n0",
    "website": "http://www.bokkedoorns.nl"
  },
  {
    "address": "Vischmarkt 38, 3841 BG Harderwijk Routeplanner",
    "country": "nl",
    "cuisine": "Creatief,Frans modern,Portugees",
    "latitude": "52.351",
    "longitude": "5.62026",
    "name": "'t Nonnetje",
    "neighborhood": "Routeplanner",
    "num_star": 2,
    "price_range": "Van \u20ac 66 tot \u20ac 105",
    "url": "https://www.viamichelin.nl/web/Restaurant/Harderwijk-3841_BG-t_Nonnetje-3gr5cas",
    "website": "http://www.hetnonnetje.nl"
  },
  {
    "address": "Plein 1992 nr 12, 6221 JP Maastricht Routeplanner",
    "country": "nl",
    "cuisine": "Creatief",
    "latitude": "50.84803",
    "longitude": "5.70307",
    "name": "Beluga",
    "neighborhood": "Routeplanner",
    "num_star": 2,
    "price_range": "Van \u20ac 60 tot \u20ac 118",
    "url": "https://www.viamichelin.nl/web/Restaurant/Maastricht-6221_JP-Beluga-3guvjos",
    "website": "http://www.rest-beluga.com"
  },
  {
    "address": "Beekstraat 1, 5671 CS Nuenen Routeplanner",
    "country": "nl",
    "cuisine": "Creatief",
    "latitude": "51.47674",
    "longitude": "5.55406",
    "name": "De Lindehof",
    "neighborhood": "Routeplanner",
    "num_star": 2,
    "price_range": "Van \u20ac 58 tot \u20ac 151",
    "url": "https://www.viamichelin.nl/web/Restaurant/Nuenen-5671_CS-De_Lindehof-3gwxioi",
    "website": "http://www.restaurant-delindehof.nl"
  },
  {
    "address": "Valkenswaardseweg 14, 5582 VB Waalre Routeplanner",
    "country": "nl",
    "cuisine": "Creatief",
    "latitude": "51.38172",
    "longitude": "5.47086",
    "name": "De Treeswijkhoeve",
    "neighborhood": "Routeplanner",
    "num_star": 2,
    "price_range": "Van \u20ac 68 tot \u20ac 105",
    "url": "https://www.viamichelin.nl/web/Restaurant/Waalre-5582_VB-De_Treeswijkhoeve-3h0vbjn",
    "website": "http://www.treeswijkhoeve.nl"
  },
  {
    "address": "Hoogeveenseweg 17, 7921 PC Zuidwolde Routeplanner",
    "country": "nl",
    "cuisine": "Creatief",
    "latitude": "52.69618",
    "longitude": "6.43357",
    "name": "De Groene Lantaarn",
    "neighborhood": "Routeplanner",
    "num_star": 2,
    "price_range": "Van \u20ac 58 tot \u20ac 112",
    "url": "https://www.viamichelin.nl/web/Restaurant/Zuidwolde-7921_PC-De_Groene_Lantaarn-3h2y4me",
    "website": "http://www.degroenelantaarn.com"
  },
  {
    "address": "Honingerdijk 263, 3063 AM Kralingen Routeplanner",
    "country": "nl",
    "cuisine": "Frans creatief",
    "latitude": "51.92262",
    "longitude": "4.47075",
    "name": "Fred",
    "neighborhood": "Routeplanner",
    "num_star": 2,
    "price_range": "Van \u20ac 85 tot \u20ac 137",
    "url": "https://www.viamichelin.nl/web/Restaurant/Kralingen-3063_AM-Fred-3hgzs1q",
    "website": "http://www.restaurantfred.nl"
  },
  {
    "address": "Katshoek 37B, 3032 AE Rotterdam Routeplanner",
    "country": "nl",
    "cuisine": "Creatief",
    "latitude": "51.92262",
    "longitude": "4.47075",
    "name": "FG - Fran\u00e7ois Geurds",
    "neighborhood": "Routeplanner",
    "num_star": 2,
    "price_range": "Van \u20ac 114 tot \u20ac 185",
    "url": "https://www.viamichelin.nl/web/Restaurant/Rotterdam-3032_AE-FG_Francois_Geurds-3hhesue",
    "website": "http://www.fgrestaurant.nl"
  },
  {
    "address": "Oosterdokskade 5, 1011 AD Amsterdam Routeplanner",
    "country": "nl",
    "cuisine": "Creatief",
    "latitude": "52.376312",
    "longitude": "4.905987",
    "name": "&Moshik",
    "neighborhood": "Routeplanner",
    "num_star": 2,
    "price_range": "Van \u20ac 111 tot \u20ac 191",
    "url": "https://www.viamichelin.nl/web/Restaurant/Amsterdam-1011_AD-Moshik-q5sdi6d",
    "website": "http://www.samhoudplaces.com"
  },
  {
    "address": "Jan Deckersstraat 7, 5591 HN Heeze Routeplanner",
    "country": "nl",
    "cuisine": "Creatief",
    "latitude": "51.3793",
    "longitude": "5.577939",
    "name": "Tribeca",
    "neighborhood": "Routeplanner",
    "num_star": 2,
    "price_range": "Van \u20ac 65 tot \u20ac 125",
    "url": "https://www.viamichelin.nl/web/Restaurant/Heeze-5591_HN-Tribeca-zmkklydr",
    "website": "http://www.restaurant-tribeca.nl"
  },
  {
    "address": "Zandweg 2, 4416 NA Kruiningen Routeplanner",
    "country": "nl",
    "cuisine": "Moderne keuken",
    "latitude": "51.45513",
    "longitude": "4.02527",
    "name": "Inter Scaldes",
    "neighborhood": "Routeplanner",
    "num_star": 3,
    "price_range": "Van \u20ac 111 tot \u20ac 200",
    "url": "https://www.viamichelin.nl/web/Restaurant/Kruiningen-4416_NA-Inter_Scaldes-3gtjiqe",
    "website": "http://www.interscaldes.eu"
  },
  {
    "address": "Kerkweg 1, 8171 VT Vaassen Routeplanner",
    "country": "nl",
    "cuisine": "Creatief,Moderne keuken",
    "latitude": "52.2883",
    "longitude": "5.96508",
    "name": "De Leest",
    "neighborhood": "Routeplanner",
    "num_star": 3,
    "price_range": "Van \u20ac 116 tot \u20ac 168",
    "url": "https://www.viamichelin.nl/web/Restaurant/Vaassen-8171_VT-De_Leest-3h082pa",
    "website": "http://www.restaurantdeleest.nl"
  },
  {
    "address": "Spinhuisplein 1, 8011 ZZ Zwolle Routeplanner",
    "country": "nl",
    "cuisine": "Moderne keuken",
    "latitude": "52.51534",
    "longitude": "6.09781",
    "name": "De Librije",
    "neighborhood": "Routeplanner",
    "num_star": 3,
    "price_range": "Van \u20ac 125 tot \u20ac 200",
    "url": "https://www.viamichelin.nl/web/Restaurant/Zwolle-8011_ZZ-De_Librije-3h33vgj",
    "website": "http://www.librije.com"
  }
]